Name,City,Latitude,Longitude,Group,Value
Barry,Bucks,31.0069,-88.0103,Coal,1118.5
E C Gaston,Wilsonville,33.244211,-86.458056,Coal,832.0
Dolet Hills,Mansfield,32.030556,-93.56916700000001,Coal,642.5
Charles R Lowman,Leroy,31.488019,-87.910747,Coal,554.0
Platte,Grand Island,40.854765,-98.34822199999999,Coal,100.0
Whelan Energy Center,Hastings,40.580872,-98.312437,Coal,309.0
Aurora Energy LLC Chena,Fairbanks,64.84774300000001,-147.735063,Coal,25.7
Escalante,Prewitt,35.4159,-108.08200000000001,Coal,253.0
Holcomb,Holcomb,37.9308,-100.9725,Coal,358.8
Cholla,Joseph City,34.9394,-110.3033,Coal,767.0
Oklaunion,Oklaunion,34.0825,-99.1753,Coal,650.0
Cross,Cross,33.371506,-80.113235,Coal,2350.0
Seminole (FL),Palatka,29.733056,-81.632778,Coal,1309.0
Apache Station,Cochise,32.0603,-109.8931,Coal,175.0
GREC,Chouteau,36.190278,-95.2894,Coal,492.0
Limestone,Jewett,31.4219,-96.2525,Coal,1689.0
Comanche (CO),Pueblo,38.2081,-104.5747,Coal,1410.0
Martin Drake,Colorado Springs,38.824444,-104.833333,Coal,208.0
Hayden,Hayden,40.4856,-107.185,Coal,441.0
Nucla,Nucla,38.2383,-108.5069,Coal,100.0
Stanton Energy Center,Orlando,28.4822,-81.1678,Coal,896.0
Bridgeport Station,Bridgeport,41.1706,-73.1844,Coal,383.4
Indian River Generating Station,Dagsboro,38.5857,-75.2341,Coal,410.0
Brandon Shores,Baltimore,39.18,-76.5389,Coal,1273.0
Crystal River,Crystal River,28.9656,-82.6977,Coal,1422.0
Crist,Pensacola,30.5661,-87.2244,Coal,924.0
Big Bend,Apollo Beach,27.7944,-82.4036,Coal,1602.0
Deerhaven Generating Station,Gainesville,29.7592,-82.3878,Coal,232.0
Northside Generating Station,Jacksonville,30.4172,-81.5525,Coal,586.0
C D McIntosh Jr,Lakeland,28.0801,-81.9229,Coal,342.0
Bowen,Cartersville,34.1256,-84.9222,Coal,3232.0
E D Edwards,Bartonville,40.5958,-89.6631,Coal,560.0
Kincaid Generation LLC,Kincaid,39.590556,-89.49638900000001,Coal,1108.0
Powerton,Pekin,40.5408,-89.6786,Coal,1538.0
Waukegan,Waukegan,42.3833,-87.8133,Coal,689.0
Will County,Romeoville,41.6334,-88.0629,Coal,510.0
Joppa Steam,Joppa,37.2094,-88.858889,Coal,948.0
Baldwin Energy Complex,Baldwin,38.205,-89.8544,Coal,1778.0
Dallman,Springfield,39.754803,-89.602389,Coal,534.0
Marion,Marion,37.619747,-88.953114,Coal,290.0
Clifty Creek,Madison,38.7378,-85.4206,Coal,1173.0
AES Petersburg,Petersburg,38.5281,-87.2525,Coal,1701.5
Michigan City,Michigan City,41.7208,-86.9086,Coal,455.0
Cayuga,Cayuga,39.9242,-87.4244,Coal,995.0
Edwardsport,Edwardsport,38.8067,-87.2472,Coal,595.0
R Gallagher,New Albany,38.2636,-85.8381,Coal,280.0
F B Culley,Newburgh,37.9111,-87.3275,Coal,360.0
Crawfordsville Power Plant,Crawfordsville,40.048889,-86.8992,Coal,23.2
Whitewater Valley,RICHMOND,39.8028,-84.8953,Coal,99.7
Lansing,Lansing,43.3359,-91.1675,Coal,247.8
Prairie Creek,Cedar Rapids,41.944039000000004,-91.639167,Coal,30.0
Walter Scott Jr Energy Center,Council Bluffs,41.18,-95.8408,Coal,1514.4
George Neal North,Sergeant Bluff,42.299794,-96.361707,Coal,510.1
Burlington (IA),Burlington,40.7412,-91.116667,Coal,197.7
Muscatine Plant #1,Muscatine,41.3917,-91.0569,Coal,227.2
La Cygne,La Cygne,38.3481,-94.6456,Coal,1408.0
Lawrence Energy Center,Lawrence,39.0072,-95.26916700000001,Coal,484.0
E W Brown,Harrodsburg,37.788309999999996,-84.71257,Coal,409.0
Ghent,Ghent,38.7497,-85.035,Coal,1919.0
Mill Creek (KY),Louisville,38.0525,-85.9103,Coal,1465.0
Elmer Smith,Owensboro,37.7942,-87.0608,Coal,399.8
Shawnee,West Paducah,37.1517,-88.775,Coal,1206.0
Kenneth C Coleman,Hawesville,37.9631,-86.7911,Coal,443.0
Robert A Reid,Robards,37.6461,-87.5019,Coal,65.0
Cooper,Somerset,36.9981,-84.5919,Coal,341.0
R S Nelson,Westlake,30.2844,-93.2911,Coal,550.0
Herbert A Wagner,Baltimore,39.1781,-76.5268,Coal,423.0
Chalk Point LLC,Aquasco,38.5444,-76.6861,Coal,670.0
Dickerson,Dickerson,39.2097,-77.4644,Coal,519.0
Morgantown Generating Plant,Newburg,38.3592,-76.9767,Coal,1205.0
Dan E Karn,Essexville,43.644996,-83.840074,Coal,515.0
J H Campbell,West Olive,42.910296,-86.20074,Coal,1446.0
Monroe (MI),Monroe,41.8906,-83.3464,Coal,3066.0
River Rouge,River Rouge,42.2739,-83.1119,Coal,272.0
St Clair,East China Twp,42.7642,-82.4719,Coal,1065.0
Trenton Channel,Trenton,42.1217,-83.1808,Coal,495.0
J B Sims,Grand Haven,43.0706,-86.235,Coal,69.1
Eckert Station,Lansing,42.71839,-84.55808,Coal,189.9
Erickson Station,Lansing,42.692221999999994,-84.65722199999999,Coal,154.5
Clay Boswell,Cohasset,47.2611,-93.6528,Coal,947.8
Allen S King,Oak Park Heights,45.03,-92.7786,Coal,511.0
Hoot Lake,Fergus Falls,46.290641,-96.043252,Coal,138.0
Hibbing,Hibbing,47.4294,-92.935,Coal,30.5
Asbury,Asbury,37.361315000000005,-94.58926,Coal,198.0
Hawthorn,Kansas City,39.1306,-94.4778,Coal,564.0
Labadie,Labadie,38.562244,-90.837686,Coal,2372.0
Meramec,St. Louis,38.4017,-90.3358,Coal,594.0
Sioux,West Alton,38.915479,-90.290247,Coal,974.0
New Madrid,New Madrid,36.5147,-89.5617,Coal,1154.0
Thomas Hill,Clifton Hill,39.5522,-92.6381,Coal,1134.0
Lon Wright,Fremont,41.4281,-96.4623,Coal,118.5
Sheldon,Hallam,40.5589,-96.7847,Coal,219.0
North Omaha,Omaha,41.32909,-95.94466,Coal,336.3
Merrimack,Bow,43.1411,-71.4692,Coal,438.5
Schiller,Portsmouth,43.0978,-70.7842,Coal,95.4
Four Corners,Fruitland,36.69,-108.4814,Coal,1540.0
San Juan,Waterflow,36.8006,-108.4386,Coal,847.0
Cayuga Operating Company,Lansing,42.6028,-76.6336,Coal,293.5
Dunkirk Generating Plant,Dunkirk,42.491467,-79.346631,Coal,520.0
Roxboro,Semora,36.4833,-79.0731,Coal,2439.0
G G Allen,Belmont,35.1897,-81.0122,Coal,1098.0
James E. Rogers Energy Complex,Cliffside,35.22,-81.7594,Coal,1388.0
Marshall (NC),Terrell,35.5975,-80.9658,Coal,2058.0
R M Heskett,Mandan,46.8669,-100.8836,Coal,104.3
Leland Olds,Stanton,47.280769,-101.321213,Coal,667.0
Milton R Young,Center,47.065853999999995,-101.213093,Coal,684.0
Cardinal,Brillant,40.2522,-80.6486,Coal,1790.0
Miami Fort,North Bend,39.1128,-84.8036,Coal,1020.0
Avon Lake,Avon Lake,41.504453000000005,-82.05461899999999,Coal,615.0
Conesville,Conesville,40.1842,-81.8811,Coal,780.0
FirstEnergy W H Sammis,Stratton,40.5317,-80.6319,Coal,2210.0
Kyger Creek,Cheshire,38.9144,-82.1289,Coal,962.8
Dover,Dover,40.520066,-81.46815,Coal,23.2
Orrville,Orrville,40.850964000000005,-81.765764,Coal,55.5
Painesville,Painesville,41.7265,-81.25399999999999,Coal,47.0
Muskogee,Fort Gibson,35.76135,-95.28732,Coal,503.0
Northeastern,Oologah,36.4317,-95.7008,Coal,460.0
Conemaugh,New Florence,40.3842,-79.0611,Coal,1700.0
Homer City Generating Station,Homer City,40.512825,-79.196107,Coal,1895.0
Seward (PA),New Florence,40.40625,-79.03366,Coal,521.0
Keystone,Shelocta,40.6604,-79.3411,Coal,1700.0
Brunner Island,York Haven,40.096111,-76.6962,Coal,742.0
TalenEnergy Montour,Washingtonville,41.0714,-76.6672,Coal,1504.0
Wateree,Eastover,33.8264,-80.6228,Coal,684.0
Williams,Goose Creek,33.0158,-79.9297,Coal,605.0
Bull Run,Clinton,36.0211,-84.1567,Coal,870.0
Cumberland (TN),Cumberland City,36.3903,-87.6539,Coal,2470.0
Gallatin (TN),Gallatin,36.3156,-86.4006,Coal,976.0
Kingston,Kingston,35.8992,-84.5194,Coal,1398.0
W A Parish,Thompsons,29.4828,-95.6311,Coal,2499.0
Chesterfield,Chester,37.3822,-77.3833,Coal,1006.0
Transalta Centralia Generation,Centralia,46.755938,-122.85976399999998,Coal,1340.0
John E Amos,St Albans,38.4731,-81.8233,Coal,2900.0
FirstEnergy Fort Martin Power Station,Maidsville,39.710833,-79.9275,Coal,1098.0
FirstEnergy Harrison Power Station,Haywood,39.384167,-80.3325,Coal,1954.0
Mitchell (WV),Captina,39.8297,-80.8153,Coal,1560.0
Mt Storm,Mount Storm,39.2008,-79.2636,Coal,1629.0
South Oak Creek,Oak Creek,42.8457,-87.8294,Coal,1096.7
Edgewater,Sheboygan,43.715142,-87.705863,Coal,413.6
Weston,Rothschild,44.8606,-89.6553,Coal,878.9
Genoa,Genoa,43.5589,-91.2325,Coal,307.5
Dave Johnston,Glen Rock,42.8378,-105.7769,Coal,760.0
Naughton,Kemmerer,41.7581,-110.5983,Coal,687.0
John P Madgett,Alma,44.303583,-91.91264699999999,Coal,389.8
James H Miller Jr,Quinton,33.6319,-87.0597,Coal,2779.8
FirstEnergy Pleasants Power Station,Willow Island,39.366667,-81.294444,Coal,1288.0
White Bluff,Redfield,34.4228,-92.1406,Coal,1636.7
Newton,Newton,38.9361,-88.2781,Coal,595.0
East Bend,Union,38.9036,-84.8514,Coal,600.0
W H Zimmer,Moscow,38.8675,-84.2289,Coal,1305.0
Craig (CO),Craig,40.4627,-107.5912,Coal,1285.0
Coal Creek,Underwood,47.377743,-101.15705799999999,Coal,1146.5
Belle River,China Twp,42.7756,-82.495,Coal,1270.0
H L Spurlock,Maysville,38.7,-83.8181,Coal,1346.0
Wansley,Roopville,33.41342,-85.032329,Coal,1744.0
Big Cajun 2,New Roads,30.7261,-91.3692,Coal,1148.0
Nearman Creek,Kansas,39.1681,-94.6975,Coal,240.0
Iatan,Weston,39.4472,-94.98,Coal,1597.5
Jeffrey Energy Center,St. Mary's,39.286453,-96.117231,Coal,2189.0
Trimble County,Bedford,38.5847,-85.4117,Coal,1243.0
Victor J Daniel Jr,Escatawpa,30.5322,-88.5553,Coal,1004.0
Colstrip,Colstrip,45.8831,-106.61399999999999,Coal,1480.0
Gerald Gentleman,Sutherland,41.0808,-101.1408,Coal,1365.0
Somerset Operating Co LLC,Barker,43.358889000000005,-78.604722,Coal,685.9
R M Schahfer,Wheatfield,41.2164,-87.0261,Coal,1625.0
Lewis & Clark,Richland,47.6785,-104.15665,Coal,53.1
Sherburne County,Becker,45.3808,-93.8931,Coal,2238.0
Sooner,Red Rock,36.453070000000004,-97.05279,Coal,1040.0
Nebraska City,Nebraska City,40.6214,-95.7764,Coal,1345.3
Big Stone,Big Stone City,45.303652,-96.510067,Coal,474.0
Wyodak,Gillette,44.290128,-105.381482,Coal,332.0
Boardman,Boardman,45.693182,-119.808819,Coal,585.0
Gibson,Owensville,38.372222,-87.765833,Coal,3132.0
A B Brown,Mount Vernon,37.9053,-87.715,Coal,490.0
Flint Creek,Gentry,36.2561,-94.5241,Coal,528.0
Welsh,Pittsburg,33.05522,-94.839993,Coal,1056.0
Martin Lake,Tatum,32.2606,-94.5706,Coal,2410.0
Rush Island,Festus,38.131248,-90.26315699999999,Coal,1178.0
Hunter,Castle Dale,39.1747,-111.0289,Coal,1361.0
Rockport,Rockport,37.9256,-87.0372,Coal,2600.0
Coronado,St Johns,34.5789,-109.2708,Coal,762.0
Coleto Creek,Fannin,28.7128,-97.214167,Coal,655.0
Fayette Power Project,La Grange,29.9172,-96.7506,Coal,1615.0
Oak Grove (TX),Franklin,31.1803,-96.4866,Coal,1710.0
J T Deely,San Antonio,29.308056,-98.3228,Coal,840.0
San Miguel,Christine,28.7044,-98.4775,Coal,391.0
Brame Energy Center,Lena,31.395,-92.716667,Coal,493.2
Harrington,Amarillo,35.298159999999996,-101.747187,Coal,1018.0
Tolk,Muleshoe,34.186494,-102.56999,Coal,1067.0
John Twitty Energy Center,Springfield,37.151706,-93.38804,Coal,459.0
Laramie River Station,Wheatland,42.108889000000005,-104.8825,Coal,1710.0
Merom,Sullivan,39.0694,-87.5108,Coal,991.0
Pawnee,Brush,40.2217,-103.6803,Coal,505.0
Winyah,Georgetown,33.33184,-79.357236,Coal,1130.0
Mayo,Roxboro,36.5278,-78.8917,Coal,727.0
Ottumwa,Ottumwa,41.0961,-92.55583299999999,Coal,725.4
Scherer,Juliette,33.0606,-83.8075,Coal,3440.0
Mountaineer,New Haven,38.9794,-81.9344,Coal,1299.0
Healy,Healy,63.8542,-148.95,Coal,75.0
Antelope Valley,Beulah,47.370542,-101.83566,Coal,900.0
Intermountain Power Project,Delta,39.509731,-112.58018,Coal,1800.0
R D Green,Robards,37.6461,-87.5,Coal,454.0
Independence Steam Electric Station,Newark,35.678442,-91.408761,Coal,1651.4
Louisa,Muscatine,41.3181,-91.0931,Coal,748.8
Warrick,Newburgh,37.915,-87.3328,Coal,708.9
Rawhide,Wellington,40.860904999999995,-105.021207,Coal,280.0
Sikeston Power Station,Sikeston,36.8791,-89.6209,Coal,240.0
Hugo,Fort Towson,34.0158,-95.3206,Coal,440.0
D B Wilson,Centertown,37.4497,-87.0806,Coal,417.0
Major Oak Power,Bremond,31.091925,-96.69503,Coal,305.0
J K Spruce,San Antonio,29.309721999999997,-98.3203,Coal,1345.0
Cope,Cope,33.3644,-81.03,Coal,415.0
Clover,Clover,36.869,-78.704,Coal,877.0
Polk,Mulberry,27.7286,-81.9897,Coal,161.0
George Neal South,Salix,42.3006,-96.3617,Coal,643.6
Neil Simpson II,Gillette,44.2856,-105.3833,Coal,80.0
Bonanza,Vernal,40.0864,-109.2844,Coal,458.0
Pirkey,Hallsville,32.4607,-94.4852,Coal,675.0
Columbia (WI),Pardeville,43.4864,-89.4203,Coal,1137.4
Belews Creek,Belews Creek,36.2811,-80.0603,Coal,2220.0
Jim Bridger,Point of Rocks,41.7378,-108.7875,Coal,2111.0
Huntington,Huntington,39.3792,-111.0781,Coal,909.0
"Gavin Power, LLC",Cheshire,38.9347,-82.1158,Coal,2680.0
Ray D Nixon,Fountain,38.633451,-104.70577,Coal,208.0
Coyote,Beulah,47.221447,-101.815722,Coal,429.0
Springerville,Springerville,34.3186,-109.1639,Coal,1625.0
North Valmy,Valmy,40.881316999999996,-117.151605,Coal,522.0
Cheswick Power Plant,Cheswick,40.5383,-79.7906,Coal,565.0
"RED-Rochester, LLC",Rochester,43.1989,-77.6319,Coal,132.1
Logan Generating Plant,Swedesboro,39.7928,-75.406667,Coal,219.0
Taconite Harbor Energy Center,Schroeder,47.5314,-90.9114,Coal,154.9
John B Rich Memorial Power Station,Frackville,40.7903,-76.1983,Coal,80.0
Colver Power Project,Colver,40.55,-78.8,Coal,110.0
Grant Town Power Plant,Grant Town,39.561831,-80.163138,Coal,80.0
Biron Mill,Wisconsin Rapids,44.43,-89.78,Coal,35.3
Foster Wheeler Mt Carmel Cogen,Marion Heights,40.811189,-76.452951,Coal,43.0
Amalgamated Sugar Twin Falls,Twin Falls,42.5328,-114.4328,Coal,8.5
Chambers Cogeneration LP,Carneys Point,39.693494,-75.485811,Coal,244.0
Ebensburg Power,Ebensburg,40.455,-78.7472,Coal,50.0
River Valley,Panama,35.1931,-94.6458,Coal,320.0
AES Hawaii,Kapolei,21.303419,-158.106528,Coal,180.0
AES Warrior Run Cogeneration Facility,Cumberland,39.595171,-78.745333,Coal,180.0
Argus Cogen Plant,Trona,35.765,-117.3833,Coal,57.0
Morgantown Energy Facility,Morgantown,39.6397,-79.96055600000001,Coal,50.0
Colstrip Energy LP,Colstrip,45.9752,-106.6547,Coal,38.0
Silver Bay Power,Silver Bay,47.286573,-91.260531,Coal,105.0
Archer Daniels Midland Clinton,Clinton,41.8206,-90.2097,Coal,180.0
Archer Daniels Midland Des Moines,Des Moines,41.624438,-93.584515,Coal,7.9
Archer Daniels Midland Lincoln,Lincoln,40.866463,-96.614486,Coal,7.9
Archer Daniels Midland Mankato,Mankato,44.187065999999994,-93.99242,Coal,6.2
Archer Daniels Midland Cedar Rapids,Cedar Rapids,41.9221,-91.6875,Coal,260.0
Archer Daniels Midland Decatur,Decatur,39.870074,-88.89075600000001,Coal,335.0
Tate & Lyle Decatur Plant Cogen,Decatur,39.84919,-88.931944,Coal,62.0
Canton North Carolina,Canton,35.535,-82.8411,Coal,52.5
Utility Plants Section,Fort Wainwright,64.825601,-147.648627,Coal,23.0
University of Notre Dame,Notre Dame,41.7094,-86.2367,Coal,16.4
Eielson AFB Central Heat & Power Plant,Eielson AFB,64.67141,-147.075988,Coal,20.0
Pixelle Specialty Solutions LLC - Spring Grove Facility,Spring Grove,39.870934999999996,-76.868117,Coal,36.1
Tennessee Eastman Operations,Kingsport,36.5219,-82.5431,Coal,131.3
Westwood Generation LLC,Tremont,40.6191,-76.45,Coal,30.0
University of Alaska Fairbanks,Fairbanks,64.854171,-147.822075,Coal,9.1
Panther Creek Energy Facility,Nesquehoning,40.8556,-75.8781,Coal,83.0
TES Filer City Station,Filer City,44.217299,-86.28905,Coal,60.0
Wheelabrator Frackville Energy,Frackville,40.782377000000004,-76.17618399999999,Coal,42.5
Northampton Generating Company LP,Northampton,40.6917,-75.4792,Coal,112.0
Covington Facility,Covington,37.799721999999996,-79.9947,Coal,43.0
Rhinelander Mill,Rhinelander,45.6394,-89.4205,Coal,6.3
Sunnyside Cogen Associates,Sunnyside,39.5472,-110.3917,Coal,51.0
Scrubgrass Generating Plant,Kennerdell,41.2691,-79.8134,Coal,84.6
Indiantown Cogeneration LP,Indiantown,27.0389,-80.5125,Coal,330.0
Spruance Operating Services LLC,Richmond,37.4556,-77.4308,Coal,105.0
Kaukauna Paper Mill,Kaukauna,44.2826,-88.2534,Coal,12.0
Iowa State University,Ames,42.0275,-93.6394,Coal,46.2
American Crystal Sugar Hillsboro,Hillsboro,47.437562,-97.06311,Coal,13.3
American Crystal Sugar Moorhead,Moorhead,46.9026,-96.76111999999999,Coal,5.0
American Crystal Sugar Crookston,Crookston,47.76468,-96.633375,Coal,6.5
American Crystal Sugar Drayton,Drayton,48.593158,-97.17608,Coal,6.0
American Crystal Sugar East Grand Forks,East Grand Forks,47.927202,-97.007153,Coal,7.5
Univ of NC Chapel Hill Cogen Facility,Chapel Hill,35.9069,-79.0617,Coal,28.7
Birchwood Power,King George,38.2667,-77.3147,Coal,237.9
General Chemical,Green River,41.5933,-109.7542,Coal,30.0
Southern Minnesota Beet Sugar,Renville,44.796405,-95.179787,Coal,7.5
Ingredion Incorporated,Bedford Park,41.7775,-87.8233,Coal,42.2
St Nicholas Cogen Project,Shenandoah,40.8222,-76.1736,Coal,86.0
University of Iowa Main Power Plant,Iowa City,41.6572,-91.54,Coal,21.0
Neenah Paper Munising Mill,Munising,46.4094,-86.6443,Coal,5.8
Red Hills Generating Facility,Ackerman,33.3761,-89.2183,Coal,440.0
Wygen 1,Gillette,44.2858,-105.3833,Coal,85.0
Hardin Generator Project,Hardin,45.7578,-107.6,Coal,107.0
Prairie State Generating Station,Marissa,38.279167,-89.666944,Coal,1630.0
Elm Road Generating Station,Oak Creek,42.8492,-87.8336,Coal,1263.3
TS Power Plant,Battle Mountain,40.7461,-116.5297,Coal,218.4
Wygen 2,Gillette,44.2919,-105.3811,Coal,90.0
Plum Point Energy Station,Osceola,35.6644,-89.9489,Coal,680.0
John W Turk Jr Power Plant,Fulton,33.649722,-93.811944,Coal,650.0
Wygen III,Gillette,44.2919,-105.3806,Coal,100.0
Dry Fork Station,Gillette,44.388889,-105.46083300000001,Coal,380.0
Sandy Creek Energy Station,Riesel,31.474378,-96.957149,Coal,932.6
Longview Power Plant,Maidsville,39.707893,-79.958974,Coal,710.0
Spiritwood Station,Spiritwood,46.926423,-98.499713,Coal,92.3
Virginia City Hybrid Energy Center,St. Paul,36.916389,-82.33805500000001,Coal,610.0
Archer Daniels Midland Columbus,Columbus,41.416441999999996,-97.286328,Coal,61.0
Sidney MT Plant,Sidney,47.717222,-104.13555600000001,Coal,4.0
Genesis Alkali,Green River,41.621666999999995,-109.811944,Coal,41.0
SIUC,Carbondale,37.711944,-89.215,Coal,2.8
Western Sugar Coop - Scottsbluff,Scottsbluff,41.85887,-103.63438000000001,Coal,5.0
Wausau Paper Middletown,Middletown,39.519989,-84.406153,Coal,7.5
Western Sugar Coop- Ft Morgan,Fort Morgan,40.263000000000005,-103.8069,Coal,3.0
AES Puerto Rico,Guayama,17.947115,-66.149897,Coal,454.4
Western Sugar Cooperative - Billings,Billings,45.765346,-108.499232,Coal,1.5
Barry,Bucks,31.0069,-88.0103,Natural_gas,1268.4
Gadsden,Gadsden,34.0128,-85.9708,Natural_gas,130.0
Copper,El Paso,31.7569,-106.375,Natural_gas,63.0
Greene County,Demopolis,32.6017,-87.7811,Natural_gas,1256.1
E C Gaston,Wilsonville,33.244211,-86.458056,Natural_gas,1020.0
Madelia,City of Madelia,44.0501,-94.4178,Natural_gas,10.3
Colbert,Tuscumbia,34.7439,-87.8486,Natural_gas,363.2
J K Smith,Winchester,37.8833,-84.1017,Natural_gas,784.0
Anchorage 1,Anchorage,61.2221,-149.8661,Natural_gas,60.4
Beluga,Beluga,61.1861,-151.0356,Natural_gas,300.4
Frederickson,Tacoma,47.079722,-122.365,Natural_gas,134.0
Ocotillo,Tempe,33.4225,-111.9122,Natural_gas,623.5
West Phoenix,Phoenix,33.4417,-112.1583,Natural_gas,920.0
Saguaro,Red Rock,32.5517,-111.3,Natural_gas,176.0
Yucca,Yuma,32.7214,-114.7106,Natural_gas,257.0
Demoss Petrie,Tucson,32.252272999999995,-110.992148,Natural_gas,75.0
H Wilson Sundt Generating Station,Tucson,32.16,-110.9047,Natural_gas,399.0
Agua Fria,Glendale,33.5561,-112.2153,Natural_gas,626.0
Kyrene,Tempe,33.3556,-111.9353,Natural_gas,525.0
McClure,Modesto,37.62936,-120.93139,Natural_gas,53.5
Apache Station,Cochise,32.0603,-109.8931,Natural_gas,373.5
GREC,Chouteau,36.190278,-95.2894,Natural_gas,507.5
Lake Catherine,Jones Mill,34.4341,-92.9049,Natural_gas,522.0
Thomas Fitzhugh,Ozark,35.462382,-93.804926,Natural_gas,162.0
Carl Bailey,Augusta,35.260102,-91.363426,Natural_gas,122.0
McClellan (AR),Camden,33.5648,-92.7917,Natural_gas,134.0
Humboldt Bay,Eureka,40.7415,-124.2103,Natural_gas,163.4
Dynegy Moss Landing Power Plant,Moss Landing,36.804837,-121.78224099999998,Natural_gas,1020.0
AES Alamitos LLC,Long Beach,33.7688,-118.1009,Natural_gas,1152.0
AES Huntington Beach LLC,Huntington Beach,33.6439,-117.9792,Natural_gas,225.8
Long Beach Generation LLC,Long Beach,33.7641,-118.2248,Natural_gas,260.0
Ormond Beach,Oxnard,34.1292,-119.1689,Natural_gas,1491.0
AES Redondo Beach LLC,Redondo Beach,33.8504,-118.395,Natural_gas,830.0
Mountainview Generating Station,Redlands,34.0818,-117.2418,Natural_gas,972.0
Grayson,Glendale,34.1556,-118.2782,Natural_gas,238.0
Joliet 29,Joliet,41.494636,-88.123827,Natural_gas,1036.0
El Centro Hybrid,El Centro,32.802222,-115.54,Natural_gas,314.0
Harbor,Wilmington,33.7706,-118.2656,Natural_gas,439.0
Haynes,Long Beach,33.764741,-118.09913,Natural_gas,1595.4
Scattergood,Playa del Rey,33.918151,-118.427648,Natural_gas,783.1
Valley (CA),Sun Valley,34.244991,-118.391327,Natural_gas,576.0
Glenarm,Pasadena,34.126,-118.1494,Natural_gas,235.6
Alamosa,Alamosa,37.4594,-105.8947,Natural_gas,27.0
Cherokee,Denver,39.807275,-104.964548,Natural_gas,886.0
Fruita,Grand Junction,39.1364,-108.7347,Natural_gas,14.0
Valmont,Boulder,40.0195,-105.20200000000001,Natural_gas,43.0
George Birdsall,Colorado Springs,38.881389,-104.81694399999999,Natural_gas,55.0
Trinidad (CO),Trinidad,37.178979,-104.487492,Natural_gas,3.8
McWilliams,Gantt,31.400254999999998,-86.476449,Natural_gas,663.0
McClellan (CA),Sacramento,38.652731,-121.393336,Natural_gas,77.0
Kettle Falls Generating Station,Kettle Falls,48.620336,-118.11105900000001,Natural_gas,6.2
Middletown,Middletown,41.554944,-72.579075,Natural_gas,353.0
Stanton Energy Center,Orlando,28.4822,-81.1678,Natural_gas,295.0
Bridgeport Station,Bridgeport,41.1706,-73.1844,Natural_gas,576.3
Edge Moor,Wilmington,39.738859999999995,-75.50384,Natural_gas,710.0
McKee Run,Dover,39.176221999999996,-75.546628,Natural_gas,103.1
Fredonia,Mt Vernon,48.4558,-122.4358,Natural_gas,280.0
Cape Canaveral,Cocoa,28.4698,-80.7644,Natural_gas,1290.0
Fort Myers,Ft. Myers,26.6967,-81.7831,Natural_gas,2638.0
Lauderdale,Ft. Lauderdale,26.0686,-80.1984,Natural_gas,1223.6
Port Everglades,Ft. Lauderdale,26.0856,-80.1253,Natural_gas,1237.0
Riviera,Riviera Beach,26.7653,-80.0525,Natural_gas,1290.0
Sanford,DeBary,28.8419,-81.3256,Natural_gas,2205.0
Turkey Point,Homestead,25.4356,-80.3308,Natural_gas,1253.0
Avon Park,Avon Park,27.579444,-81.492778,Natural_gas,24.0
Crystal River,Crystal River,28.9656,-82.6977,Natural_gas,1632.0
P L Bartow,St. Petersburg,27.859534999999997,-82.601759,Natural_gas,1190.0
Suwannee River,Live Oak,30.376389,-83.18055600000001,Natural_gas,99.0
Lansing Smith,Southport,30.2686,-85.7003,Natural_gas,511.0
Big Bend,Apollo Beach,27.7944,-82.4036,Natural_gas,56.0
Deerhaven Generating Station,Gainesville,29.7592,-82.3878,Natural_gas,185.0
John R Kelly,Gainesville,29.6461,-82.3208,Natural_gas,108.0
G W Ivey,Homestead,25.4756,-80.47,Natural_gas,32.6
J D Kennedy,Jacksonville,30.364818,-81.625967,Natural_gas,317.2
Northside Generating Station,Jacksonville,30.4172,-81.5525,Natural_gas,524.0
Tom G Smith,Lake Worth,26.612766999999998,-80.0677,Natural_gas,57.5
Larsen Memorial,Lakeland,28.0797,-81.9228,Natural_gas,124.0
C D McIntosh Jr,Lakeland,28.0801,-81.9229,Natural_gas,460.0
Indian River Plant,Titusville,28.493232,-80.780124,Natural_gas,290.0
Arvah B Hopkins,Tallahassee,30.4522,-84.4,Natural_gas,466.0
S O Purdom,St Marks,30.162304,-84.200673,Natural_gas,226.0
Jack McDonough,Smyrna,33.8239,-84.4758,Natural_gas,2534.0
Yates,Newnan,33.4622,-84.8986,Natural_gas,714.0
Crisp Plant,Warwick,31.844708,-83.94073399999999,Natural_gas,14.0
Ponca,Ponca City,36.71979,-97.085758,Natural_gas,34.0
Grand Tower Energy Center LLC,Grand Tower,37.6577,-89.511161,Natural_gas,511.0
Joliet 9,Joliet,41.4931,-88.1153,Natural_gas,314.0
Moline,Moline,41.509959,-90.534021,Natural_gas,64.0
Venice,Venice,38.6642,-90.1764,Natural_gas,487.0
Farmer City,Farmer City,40.246109999999994,-88.638761,Natural_gas,4.1
Geneseo,Geneseo,41.451494,-90.148547,Natural_gas,19.5
Princeton (IL),Princeton,41.375528,-89.464872,Natural_gas,37.7
North Ninth Street,Rochelle,41.9093,-89.0498,Natural_gas,12.5
South Main Street,Rochelle,41.9092,-89.0504,Natural_gas,3.6
Waterloo,Waterloo,38.334786,-90.158939,Natural_gas,13.2
Winnetka,Winnetka,42.115589,-87.731025,Natural_gas,28.2
Marion,Marion,37.619747,-88.953114,Natural_gas,140.0
Harding Street,Indianapolis,39.711319,-86.196867,Natural_gas,906.0
Eagle Valley (IN),Martinsville,39.485170000000004,-86.4183,Natural_gas,644.0
CC Perry K,Indianapolis,39.7631,-86.1667,Natural_gas,16.4
Bailly,Chesterton,41.645,-87.1225,Natural_gas,31.0
Cayuga,Cayuga,39.9242,-87.4244,Natural_gas,80.0
Noblesville,Noblesville,40.0969,-85.9714,Natural_gas,264.0
Butler-Warner Generation Plant,Fayetteville,35.0986,-78.8294,Natural_gas,225.0
Rensselaer City Light Plant,Rensselaer,40.939528,-87.154472,Natural_gas,13.1
Marshalltown,Marshalltown,42.0474,-92.859444,Natural_gas,173.8
Prairie Creek,Cedar Rapids,41.944039000000004,-91.639167,Natural_gas,110.1
Coralville GT,Coralville,41.671877,-91.563999,Natural_gas,66.3
Riverside,Bettendorf,41.54,-90.4481,Natural_gas,113.7
River Hills,Des Moines,41.590218,-93.619499,Natural_gas,117.6
Merl Parr,Charles City,43.0563,-92.6932,Natural_gas,33.0
Burlington (IA),Burlington,40.7412,-91.116667,Natural_gas,47.0
Ames Electric Services Power Plant,Ames,42.0258,-93.6089,Natural_gas,95.2
Atlantic,Atlantic,41.409,-95.0,Natural_gas,9.8
Bloomfield,Bloomfield,40.7031,-92.4253,Natural_gas,6.5
Gas Turbine (IA),Cedar Falls,42.512,-92.476,Natural_gas,42.4
Streeter Station,Cedar Falls,42.5267,-92.4394,Natural_gas,55.5
Estherville,Estherville,43.4028,-94.8433,Natural_gas,12.6
Maquoketa 1,Maquoketa,42.035556,-90.665,Natural_gas,16.9
Montezuma,Montezuma,41.586026000000004,-92.5228,Natural_gas,4.1
New Hampton,New Hampton,43.0689,-92.3201,Natural_gas,13.5
Osage (IA),Osage,43.279722,-92.810556,Natural_gas,9.1
Preston (IA),Preston,42.0507,-90.3942,Natural_gas,1.8
Sibley One,Sibley,43.405,-95.7261,Natural_gas,4.8
Summit Lake,Creston,41.1136,-94.3472,Natural_gas,76.6
Earl F Wisdom,Spencer,43.1606,-95.2569,Natural_gas,113.5
Colby,Colby,39.403001,-101.038202,Natural_gas,13.0
Cimarron River,Liberal,37.1611,-100.7619,Natural_gas,65.7
Fort Dodge,Dodge City,37.7328,-99.9497,Natural_gas,146.7
Great Bend - Sunflower,Great Bend,38.41,-98.8689,Natural_gas,92.7
Riverton,Riverton,37.072616,-94.698704,Natural_gas,294.0
Gordon Evans Energy Center,Colwich,37.7903,-97.52166700000001,Natural_gas,294.0
Hutchinson Energy Center,Hutchinson,38.0906,-97.87472199999999,Natural_gas,157.0
Anthony,Anthony,37.1517,-98.0311,Natural_gas,11.1
Ashland,Ashland,37.193787,-99.76307299999999,Natural_gas,1.3
Augusta Electric Plant No 1,Augusta,37.678453999999995,-96.97193,Natural_gas,8.5
Burlingame,Burlingame,38.7551,-95.8368,Natural_gas,3.6
Burlington (KS),Burlington,38.193441,-95.749953,Natural_gas,5.8
Chanute 2,Chanute,37.6953,-95.4586,Natural_gas,46.0
Clay Center,Clay Center,39.373965999999996,-97.127211,Natural_gas,29.7
Coffeyville,Coffeyville,37.037344,-95.612689,Natural_gas,53.0
Girard,Girard,37.507709000000006,-94.839318,Natural_gas,9.5
Goodland,Goodland,39.341621999999994,-101.705188,Natural_gas,15.4
Hill City,Hill City,39.3582,-99.8417,Natural_gas,6.2
Hoisington,Hoisington,38.513000000000005,-98.7747,Natural_gas,13.0
Holton,City of Holton,39.4735,-95.73155,Natural_gas,6.0
Iola,Iola,37.923076,-95.425572,Natural_gas,10.0
Kaw,Kansas City,39.0867,-94.651389,Natural_gas,140.3
Kingman Municipal Power and Light Plant,Kingman,37.383109999999995,-98.070364,Natural_gas,18.0
McPherson 2,McPherson,38.363411,-97.68335,Natural_gas,102.5
Meade,Meade,37.285176,-100.332438,Natural_gas,5.1
Minneapolis City of,Minneapolis,39.1194,-97.7086,Natural_gas,6.2
Osage City,Osage City,38.633183,-95.827658,Natural_gas,10.1
Osborne,Osborne,39.441978999999996,-98.69029599999999,Natural_gas,1.4
Ottawa,Ottawa,38.615579,-95.279742,Natural_gas,26.0
Pratt,Pratt,37.6359,-98.7433,Natural_gas,13.0
Russell Downtown,Russell,38.893333,-98.856944,Natural_gas,9.4
Sabetha Power Plant,Sabetha,39.904922,-95.80336700000001,Natural_gas,4.1
Sharon Spring,Sharon Springs,38.890552,-101.751525,Natural_gas,3.0
Stockton,Stockton,39.43619,-99.27793,Natural_gas,5.0
Wamego,Wamego,39.1992,-96.3086,Natural_gas,15.2
Wellington 1,Wellington,37.261371999999994,-97.4057,Natural_gas,19.5
West 14th Street,Winfield,37.2354,-97.01100000000001,Natural_gas,11.1
Garden City,Garden City,37.9703,-100.8956,Natural_gas,203.3
Big Sandy,Louisa,38.1707,-82.6176,Natural_gas,260.0
E W Brown,Harrodsburg,37.788309999999996,-84.71257,Natural_gas,906.0
Haefling,Lexington,38.0794,-84.5194,Natural_gas,24.0
Cane Run,Louisville,38.1831,-85.8892,Natural_gas,663.0
Paddys Run,Louisville,38.223592,-85.84170400000001,Natural_gas,182.0
Zorn,Louisville,38.280278,-85.702331,Natural_gas,14.0
Paradise,Drakesboro,37.2608,-86.9783,Natural_gas,1100.0
Robert A Reid,Robards,37.6461,-87.5019,Natural_gas,58.0
Louisiana 2,Baton Rouge,30.4922,-91.1864,Natural_gas,138.0
R S Nelson,Westlake,30.2844,-93.2911,Natural_gas,424.7
Coughlin Power Station,St Landry,30.8439,-92.261111,Natural_gas,729.5
Teche,Baldwin,29.822221999999996,-91.5425,Natural_gas,365.0
Little Gypsy,La Place,30.005066999999997,-90.461694,Natural_gas,940.4
Nine Mile Point,Westwego,29.9472,-90.1458,Natural_gas,2034.8
Sterlington,Sterlington,32.7047,-92.0792,Natural_gas,95.2
Arsenal Hill,Shreveport,32.5181,-93.7611,Natural_gas,110.0
Lieberman,Mooringsport,32.7047,-93.9597,Natural_gas,243.0
Houma,Houma,29.5806,-90.7225,Natural_gas,67.5
New Roads,New Roads,30.726111,-91.36833299999999,Natural_gas,7.0
Big Cajun 1,Jarreau,30.6739,-91.3556,Natural_gas,430.0
Herbert A Wagner,Baltimore,39.1781,-76.5268,Natural_gas,126.0
Notch Cliff,Baltimore,39.4217,-76.5087,Natural_gas,116.7
Perryman,Harford County,39.442836,-76.221761,Natural_gas,248.8
Westport,Baltimore,39.266040000000004,-76.629537,Natural_gas,115.8
Chalk Point LLC,Aquasco,38.5444,-76.6861,Natural_gas,1585.0
Dickerson,Dickerson,39.2097,-77.4644,Natural_gas,294.0
Mystic Generating Station,Charlestown,42.3908,-71.0675,Natural_gas,1417.3
Kendall Square Station,Cambridge,42.3633,-71.0792,Natural_gas,206.0
Canal,Sandwich,41.7694,-70.5097,Natural_gas,330.0
Essential Power Massachusetts LLC,West Springfield,42.095,-72.595,Natural_gas,171.2
Potter Station 2,Braintree,42.235,-70.9672,Natural_gas,183.3
High Street Station,Ipswich,42.6986,-70.8697,Natural_gas,8.6
Waters River,Peabody,42.542949,-70.928314,Natural_gas,46.6
Cleary Flood Hybrid,Taunton,41.8653,-71.1061,Natural_gas,103.0
Dan E Karn,Essexville,43.644996,-83.840074,Natural_gas,1203.0
Delray,Detroit,42.2947,-83.1019,Natural_gas,127.0
Hancock,Commerce Twp,42.5497,-83.4425,Natural_gas,128.0
Northeast (MI),Warren,42.45,-83.0381,Natural_gas,77.0
St Clair,East China Twp,42.7642,-82.4719,Natural_gas,19.0
Grand Haven Diesel Plant,Grand Haven,43.0598,-86.2379,Natural_gas,8.4
Hart,Hart,43.704076,-86.366256,Natural_gas,1.4
Hillsdale,Hillsdale,41.9061,-84.6319,Natural_gas,11.6
Marshall (MI),Marshall,42.2717,-84.9411,Natural_gas,9.8
Wyandotte,Wyandotte,42.2081,-83.1453,Natural_gas,72.0
Zeeland,Zeeland,42.8067,-86.0558,Natural_gas,23.7
George Johnson,Hersey,43.8393,-85.426,Natural_gas,48.7
Claude Vandyke,Dorr,42.731,-85.8551,Natural_gas,20.2
Vestaburg,Vestaburg,43.4016,-84.9141,Natural_gas,18.5
Syl Laskin,Hoyt Lakes,47.5306,-92.1619,Natural_gas,88.9
Black Dog,Burnsville,44.8108,-93.2501,Natural_gas,494.0
High Bridge,St. Paul,44.9314,-93.1117,Natural_gas,530.0
Inver Hills,Inver Grove Heights,44.781000000000006,-93.042,Natural_gas,282.0
Riverside (MN),Minneapolis,45.0203,-93.2753,Natural_gas,454.0
Delano,Delano,45.041378,-93.790522,Natural_gas,3.5
Fairmont (MN),Fairmont,43.6579,-94.4647,Natural_gas,26.0
Hutchinson Plant #1,Hutchinson,44.895740999999994,-94.368433,Natural_gas,49.7
Moose Lake,Moose Lake,46.454097,-92.76055699999999,Natural_gas,2.0
Mora,Mora,45.877088,-93.295137,Natural_gas,6.9
New Prague,New Prague,44.5431,-93.5731,Natural_gas,16.8
New Ulm,New Ulm,44.3159,-94.4581,Natural_gas,22.6
Owatonna,Owatonna,44.0833,-93.23,Natural_gas,16.6
Preston (MN),Preston,43.6661,-92.0831,Natural_gas,3.3
Redwood Falls,Redwood Falls,44.5431,-95.1178,Natural_gas,6.0
Willmar,Willmar,45.121705,-95.053236,Natural_gas,23.3
Cambridge CT,Cambridge,45.601000000000006,-93.2081,Natural_gas,154.2
Elk River,Elk River,45.296797,-93.558447,Natural_gas,196.5
Chevron Oil,Pascagoula,30.34,-88.4919,Natural_gas,132.0
Sweatt,Meridian,32.2925,-88.7461,Natural_gas,32.0
Jack Watson,Gulfport,30.4392,-89.0286,Natural_gas,749.0
Baxter Wilson,Vicksburg,32.2831,-90.9306,Natural_gas,529.8
L L Wilkins,Clarksdale,34.1845,-90.562662,Natural_gas,49.5
Yazoo,Yazoo City,32.8458,-90.4211,Natural_gas,33.3
Moselle,Moselle,31.528000000000002,-89.3004,Natural_gas,477.0
Hawthorn,Kansas City,39.1306,-94.4778,Natural_gas,387.9
Ralph Green,Pleasant Hill,38.78758,-94.277689,Natural_gas,70.9
Lake Road (MO),St Joseph,39.7246,-94.8773,Natural_gas,201.2
Meramec,St. Louis,38.4017,-90.3358,Natural_gas,281.0
Carrollton,Carrollton,39.3515,-93.5016,Natural_gas,17.7
Carthage,Carthage,37.176646000000005,-94.29943100000001,Natural_gas,35.7
Chillicothe,Chillicothe,39.783388,-93.564112,Natural_gas,80.0
Columbia (MO),Columbia,38.964646,-92.31676800000001,Natural_gas,47.5
Fulton (MO),Fulton,38.868095000000004,-91.94778000000001,Natural_gas,15.0
Higginsville,Higginsville,39.073315,-93.714748,Natural_gas,37.5
Blue Valley,Independence,39.0919,-94.3261,Natural_gas,93.0
Station H,Independence,39.1067,-94.3804,Natural_gas,39.0
Kahoka,Kahoka,40.4225,-91.7206,Natural_gas,2.9
Kennett,Kennett,36.2338,-90.0521,Natural_gas,28.2
Marshall (MO),Marshall,39.1228,-93.2064,Natural_gas,26.6
James River Power Station,Springfield,37.108610999999996,-93.261944,Natural_gas,308.0
Glendive GT,Glendive,47.0539,-104.74,Natural_gas,74.9
Miles City GT,Miles City,46.4112,-105.7953,Natural_gas,23.6
Ansley,Ansley,41.289184999999996,-99.386336,Natural_gas,0.8
Auburn,Auburn,40.3883,-95.8464,Natural_gas,17.5
Beaver City,Beaver City,40.130303999999995,-99.827772,Natural_gas,1.1
Broken Bow,Broken Bow,41.4031,-99.6392,Natural_gas,7.2
Canaday,Lexington,40.6942,-99.7011,Natural_gas,99.3
Crete,Crete,40.6253,-96.9601,Natural_gas,6.0
Curtis,Curtis,40.631453,-100.51516099999999,Natural_gas,3.0
David City,David City,41.254652,-97.119202,Natural_gas,4.0
Emerson,Emerson,42.276,-96.7292,Natural_gas,1.5
Falls City,Falls City,40.055,-95.6083,Natural_gas,27.7
Franklin (NE),Franklin,40.0892,-98.9508,Natural_gas,3.9
Lon Wright,Fremont,41.4281,-96.4623,Natural_gas,38.0
C W Burdick,Grand Island,40.9228,-98.3269,Natural_gas,81.6
Don Henry,Hastings,40.583155,-98.420055,Natural_gas,18.0
North Denver,Hastings,40.598839,-98.38863,Natural_gas,41.0
Laurel,Laurel,42.430539,-97.090814,Natural_gas,2.9
J Street,Lincoln,40.80788,-96.710667,Natural_gas,29.0
Nebraska City # 1,Nebraska,40.6806,-95.8475,Natural_gas,21.6
Syracuse # 2,Syracuse,40.6756,-96.177778,Natural_gas,3.2
Hallam,Hallam,40.558652,-96.786177,Natural_gas,42.5
North Omaha,Omaha,41.32909,-95.94466,Natural_gas,241.6
Sarpy County,Bellevue,41.170594,-95.970603,Natural_gas,316.5
Oxford (NE),Oxford,40.2581,-99.6108,Natural_gas,3.0
Pender,Pender,42.114742,-96.705431,Natural_gas,4.5
Sidney (NE),Sidney,41.145634,-102.977836,Natural_gas,3.5
Wahoo,Wahoo,41.211797999999995,-96.61155,Natural_gas,13.2
Wakefield,Wakefield,42.2691,-96.8621,Natural_gas,3.2
West Point Municipal,West Point,41.844936,-96.71345,Natural_gas,4.4
Clark (NVE),Las Vegas,36.0875,-115.0507,Natural_gas,1141.0
Fort Churchill,Yerington,39.1281,-119.1322,Natural_gas,226.0
Tracy,Sparks,39.5625,-119.525,Natural_gas,897.6
Carlls Corner,Upper Deerfield Twp,39.4547,-75.2014,Natural_gas,78.6
Sayreville,Sayreville,40.476525,-74.352336,Natural_gas,200.0
Gilbert,Milford,40.565833000000005,-75.163889,Natural_gas,294.0
Bergen Generating Station,Ridgefield,40.8375,-74.0244,Natural_gas,1229.0
PSEG Burlington Generating Station,Burlington,40.076611,-74.879172,Natural_gas,168.0
PSEG Essex Generating Station,Newark,40.7372,-74.1206,Natural_gas,81.0
PSEG Kearny Generating Station,Kearny,40.737283000000005,-74.096464,Natural_gas,459.4
PSEG Linden Generating Station,Linden,40.6217,-74.2072,Natural_gas,1566.2
PSEG Sewaren Generating Station,Sewaren,40.5558,-74.2469,Natural_gas,524.5
Howard Down,Vineland,39.4889,-75.0347,Natural_gas,55.0
Rio Grande,SunLand Park,31.8047,-106.5472,Natural_gas,323.0
Maddox, Hobbs,32.714224,-103.301469,Natural_gas,183.0
Reeves,Albuquerque,35.171,-106.6019,Natural_gas,154.0
Cunningham,Hobbs,32.7131,-103.3533,Natural_gas,463.0
Animas,Farmington,36.725138,-108.19202,Natural_gas,17.0
Algodones,Algodones,35.384444,-106.46416699999999,Natural_gas,45.0
Danskammer Generating Station,Newburgh,41.571247,-73.974981,Natural_gas,495.8
West Coxsackie,Coxsackie,42.350889,-73.815798,Natural_gas,19.6
Arthur Kill Generating Station,Staten Island,40.591564,-74.200035,Natural_gas,872.4
East River,New York,40.7281,-73.9742,Natural_gas,635.6
Gowanus Gas Turbines Generating,Brooklyn,40.6635,-74.0051,Natural_gas,283.3
Narrows Gas Turbines Generating,Brooklyn,40.648610999999995,-74.020833,Natural_gas,289.4
Ravenswood,Long Island,40.759167,-73.946111,Natural_gas,2298.9
59th Street,New York,40.771285,-73.99115,Natural_gas,15.5
E F Barrett,Island Park,40.616689,-73.64788100000001,Natural_gas,668.2
Northport,Northport,40.923565,-73.342323,Natural_gas,1580.7
Port Jefferson,Port Jefferson,40.949696,-73.078507,Natural_gas,461.4
Greenidge Generation LLC,Dresden,42.6789,-76.9483,Natural_gas,104.5
Bethlehem Energy Center,Glenmont,42.594196000000004,-73.763752,Natural_gas,814.6
Bowline Point,West Haverstraw,41.2044,-73.9689,Natural_gas,1137.0
Hillburn,Hillburn,41.1269,-74.1653,Natural_gas,33.1
Shoemaker,Middletown,41.4278,-74.4186,Natural_gas,33.0
Plant No 2 Freeport,Freeport,40.6447,-73.5683,Natural_gas,49.0
S A Carlson,Jamestown,42.0933,-79.2478,Natural_gas,87.0
Charles P Keller,Rockville Centre,40.658333,-73.640556,Natural_gas,28.8
Asheville,Arden,35.4731,-82.5417,Natural_gas,766.2
Buck,Salisbury,35.7133,-80.3767,Natural_gas,668.0
Dan River,Eden,36.4862,-79.7208,Natural_gas,662.0
R M Heskett,Mandan,46.8669,-100.8836,Natural_gas,88.0
Dicks Creek,Monroe,39.465,-84.3778,Natural_gas,136.2
Frank M Tait,Moraine,39.727249,-84.211084,Natural_gas,261.6
O H Hutchings,Miamisburg,39.6088,-84.2921,Natural_gas,25.3
Yankee Street,Centerville,39.603,-84.2047,Natural_gas,115.9
FirstEnergy West Lorain,Lorain,41.429444000000004,-82.264444,Natural_gas,425.0
Richland,Defiance,41.305203000000006,-84.334622,Natural_gas,358.0
Bryan (OH),Bryan,41.471821999999996,-84.543148,Natural_gas,29.0
Collinwood,Cleveland,41.556867,-81.58796,Natural_gas,16.0
West 41st Street,Cleveland,41.474,-81.7145,Natural_gas,32.0
Dover,Dover,40.520066,-81.46815,Natural_gas,15.3
Hamilton (OH),Hamilton,39.4098,-84.5543,Natural_gas,123.0
Oberlin (OH),Oberlin,41.2836,-82.2194,Natural_gas,17.4
Orrville,Orrville,40.850964000000005,-81.765764,Natural_gas,23.0
St Marys,St. Marys,40.5458,-84.3889,Natural_gas,10.4
Horseshoe Lake,Harrah,35.50866,-97.17969000000001,Natural_gas,862.0
Muskogee,Fort Gibson,35.76135,-95.28732,Natural_gas,990.5
Mustang,Oklahoma City,35.469879999999996,-97.67498,Natural_gas,465.0
Seminole,Konowa,34.96645,-96.7258,Natural_gas,1315.0
Northeastern,Oologah,36.4317,-95.7008,Natural_gas,906.0
Southwestern,Anadarko,35.1009,-98.3524,Natural_gas,603.0
Tulsa,Tulsa,36.116492,-95.990974,Natural_gas,305.0
Weleetka,Weleetka,35.3233,-96.1352,Natural_gas,108.0
Kingfisher,Kingfisher,35.8575,-97.9277,Natural_gas,8.7
Mangum,Mangum,34.8836,-99.5022,Natural_gas,5.4
Anadarko Plant,Anadarko,35.0847,-98.23,Natural_gas,485.0
Mooreland,Mooreland,36.43725,-99.22543,Natural_gas,322.0
Brunot Island,Pittsburg,40.464851,-80.043761,Natural_gas,244.0
Blossburg,Blossburg,41.706475,-77.08184,Natural_gas,19.0
Shawville,Shawville,41.06755,-78.366228,Natural_gas,589.7
Warren,Warren,41.835947,-79.188668,Natural_gas,50.1
New Castle Plant,West Pittsburg,40.937939,-80.369007,Natural_gas,305.0
Brunner Island,York Haven,40.096111,-76.6962,Natural_gas,669.0
TalenEnergy Martins Creek,Bangor,40.797762,-75.105416,Natural_gas,1795.9
Eddystone Generating Station,Eddystone,39.858000000000004,-75.32300000000001,Natural_gas,760.0
Hunlock Power Station,Hunlok Creek,41.200556,-76.07,Natural_gas,125.4
Manchester Street,Providence,41.8167,-71.4042,Natural_gas,468.0
Darlington County,Hartsville,34.4185,-80.1657,Natural_gas,381.0
W S Lee,Williamston,34.6022,-82.435,Natural_gas,1040.0
Coit GT,Columbia,33.980253999999995,-81.04066999999999,Natural_gas,26.0
Hagood,Charleston Heights,32.8265,-79.9634,Natural_gas,126.0
McMeekin,Columbia,34.0556,-81.2172,Natural_gas,250.0
Parr GT,Jenkinsville,34.2642,-81.3308,Natural_gas,60.0
Urquhart,Beech Island,33.435,-81.9111,Natural_gas,639.0
Williams,Goose Creek,33.0158,-79.9297,Natural_gas,40.0
Ben French,Rapid City,44.087235,-103.260959,Natural_gas,68.0
Aberdeen CT,Aberdeen,45.429884,-98.49396,Natural_gas,52.0
Huron,Huron,44.369507,-98.17223,Natural_gas,54.7
Allen,Memphis,35.074087,-90.14868,Natural_gas,1479.3
Gallatin (TN),Gallatin,36.3156,-86.4006,Natural_gas,579.6
John Sevier,Rogersville,36.3767,-82.9639,Natural_gas,878.0
Johnsonville,New Johnsonville,36.0278,-87.9861,Natural_gas,1044.8
Laredo,Laredo,27.5667,-99.5089,Natural_gas,177.4
Nueces Bay,Corpus Christi,27.819412,-97.419203,Natural_gas,633.0
Victoria,Victoria,28.7883,-97.01,Natural_gas,300.0
Lake Hubbard,Sunnyvale,32.8358,-96.5458,Natural_gas,915.0
Mountain Creek,Dallas,32.7231,-96.9358,Natural_gas,808.0
Newman,El Paso,31.983587,-106.431777,Natural_gas,741.0
Lewis Creek,Willis,30.4356,-95.5214,Natural_gas,505.1
Sabine,Orange,30.0242,-93.87799999999999,Natural_gas,1604.1
Cedar Bayou,Baytown,29.75,-94.9256,Natural_gas,1495.0
Greens Bayou,Houston,29.822201,-95.219429,Natural_gas,760.0
Sam Bertron,Laporte,29.726775,-95.059827,Natural_gas,765.0
T H Wharton,Houston,29.9417,-95.5306,Natural_gas,1025.0
W A Parish,Thompsons,29.4828,-95.6311,Natural_gas,1176.0
Knox Lee,Longview,32.3766,-94.6415,Natural_gas,398.0
Lone Star,Lone Star,32.9215,-94.7226,Natural_gas,50.0
Wilkes,Avinger,32.848163,-94.547986,Natural_gas,883.0
Jones,Lubbock,33.5239,-101.7392,Natural_gas,820.0
Nichols,Amarillo,35.283357,-101.746423,Natural_gas,457.0
Plant X,Earth,34.1661,-102.4114,Natural_gas,411.0
Graham,Graham,33.1344,-98.6117,Natural_gas,624.0
Handley,Fort Worth,32.7283,-97.2192,Natural_gas,1265.0
Morgan Creek,Colorado City,32.3358,-100.9156,Natural_gas,402.0
Permian Basin,Monahans,31.5839,-102.9633,Natural_gas,321.0
Stryker Creek,Jacksonville,31.93985,-94.989834,Natural_gas,669.0
Trinidad (TX),Trinidad,32.124519,-96.101277,Natural_gas,235.0
Decker Creek,Austin,30.3033,-97.6128,Natural_gas,932.0
Silas Ray,Brownsville,25.9131,-97.5214,Natural_gas,107.0
Bryan (TX),Bryan,30.647409999999997,-96.372316,Natural_gas,21.0
Ray Olinger,Navada,33.068055,-96.452481,Natural_gas,395.0
Sim Gideon,Bastrop,30.1456,-97.2708,Natural_gas,607.0
Ty Cooke,Lubbock,33.5211,-101.7906,Natural_gas,120.0
J Robert Massengale,Lubock,33.6039,-101.8408,Natural_gas,74.0
Leon Creek,San Antonio,29.3525,-98.5761,Natural_gas,184.0
O W Sommers,San Antonio,29.308056,-98.3242,Natural_gas,830.0
V H Braunig,Elmendorf,29.2567,-98.3825,Natural_gas,1050.0
R W Miller,Palo Pinto,32.6581,-98.3103,Natural_gas,574.0
Pearsall,Pearsall,28.9275,-99.0919,Natural_gas,201.6
Sam Rayburn,Nursery,28.8947,-97.135,Natural_gas,205.0
Gadsby,Salt Lake City,40.7686,-111.9289,Natural_gas,354.5
Bountiful City,Bountiful,40.886866999999995,-111.885332,Natural_gas,27.2
Clinch River,Cleveland,36.9333,-82.1997,Natural_gas,460.0
Chesterfield,Chester,37.3822,-77.3833,Natural_gas,392.0
Possum Point,Dumfries,38.5367,-77.2806,Natural_gas,559.0
Bay Front,Ashland,46.587222,-90.9017,Natural_gas,23.0
Fitchburg,Madison,43.0147,-89.4603,Natural_gas,32.4
Blount Street,Madison,43.0789,-89.3744,Natural_gas,94.3
Sycamore (WI),Madison,43.1133,-89.3128,Natural_gas,28.3
Wheaton,Eau Claire,44.885416,-91.515833,Natural_gas,186.0
Port Washington Generating Station,Port Washington,43.3842,-87.8689,Natural_gas,1204.3
Valley (WI),Milwaukee,43.0303,-87.9233,Natural_gas,262.6
Rock River,Beloit,42.583094,-89.025915,Natural_gas,114.6
Sheepskin,Edgerton,42.8347,-89.110833,Natural_gas,27.2
Pulliam,Green Bay,44.54,-88.0086,Natural_gas,80.1
West Marinette,Peshtigo,45.0869,-87.6881,Natural_gas,154.0
Weston,Rothschild,44.8606,-89.6553,Natural_gas,110.5
Arcadia Electric,Arcadia,44.2524,-91.5034,Natural_gas,6.0
Cashton,Cashton,43.742874,-90.780325,Natural_gas,1.1
Cumberland (WI),Cumberland,45.5336,-92.0224,Natural_gas,11.8
Kaukauna Gas Turbine,Kaukauna,44.276199,-88.265445,Natural_gas,15.8
Powerlane Plant,Greenville,33.1707,-96.1264,Natural_gas,106.6
Logan City,Logan,41.725833,-111.8433,Natural_gas,13.5
Walnut,Turlock,37.4903,-120.9044,Natural_gas,47.0
Spencer,Denton,33.1975,-97.1061,Natural_gas,122.0
Thomas C Ferguson,Marble Falls,30.558000000000003,-98.3705,Natural_gas,516.0
Barney M Davis,Corpus Christi,27.6064,-97.3117,Natural_gas,933.0
Riverside (OK),Jenks,35.9978,-95.9567,Natural_gas,1067.0
Cumberland (NJ),Millville,39.3757,-74.9654,Natural_gas,183.1
Olive,Burbank,34.1764,-118.3147,Natural_gas,99.0
Belle River,China Twp,42.7756,-82.495,Natural_gas,224.0
Greenwood (MI),Avoca,43.1056,-82.6964,Natural_gas,1009.0
Manatee,Parrish,27.6058,-82.3456,Natural_gas,1223.5
Martin,Indiantown,27.0536,-80.5628,Natural_gas,2209.0
DeBary,DeBary,28.903863,-81.332329,Natural_gas,237.0
Big Cajun 2,New Roads,30.7261,-91.3692,Natural_gas,575.0
Cascade Creek,Rochester,44.0322,-92.4908,Natural_gas,77.4
Coachella,Coachella,33.6758,-116.1714,Natural_gas,81.6
Electrifarm,Waterloo,42.4407,-92.4205,Natural_gas,182.7
Nearman Creek,Kansas,39.1681,-94.6975,Natural_gas,76.0
Trimble County,Bedford,38.5847,-85.4117,Natural_gas,954.0
Victor J Daniel Jr,Escatawpa,30.5322,-88.5553,Natural_gas,1081.0
Greenwood (MO),Greenwood,38.8615,-94.2982,Natural_gas,242.1
R M Schahfer,Wheatfield,41.2164,-87.0261,Natural_gas,155.0
North Loop,Tucson,32.400999999999996,-111.1262,Natural_gas,95.0
Lewis & Clark,Richland,47.6785,-104.15665,Natural_gas,18.2
Fort St Vrain,Platteville,40.2461,-104.8742,Natural_gas,968.0
Whitehorn,Blaine,48.885636,-122.75164,Natural_gas,134.0
McIntosh,Rincon,32.356287,-81.168347,Natural_gas,657.6
Shrewsbury,Shrewsbury,42.2747,-71.7172,Natural_gas,2.5
A B Brown,Mount Vernon,37.9053,-87.715,Natural_gas,160.0
Kansas City International,Kansas City,39.297252,-94.69315300000001,Natural_gas,33.6
New Haven Harbor,New Haven,41.283997,-72.904323,Natural_gas,447.9
Brame Energy Center,Lena,31.395,-92.716667,Natural_gas,416.2
John Twitty Energy Center,Springfield,37.151706,-93.38804,Natural_gas,104.0
Northeast (WA),Spokane,47.73511,-117.37053799999998,Natural_gas,45.0
Empire Energy Center,Sarcoxie,37.1385,-94.1041,Natural_gas,262.0
Dansby,Bryan,30.7217,-96.4608,Natural_gas,204.2
Germantown,Germantown,43.1952,-88.1496,Natural_gas,80.8
Bernice Lake,Nikiski,60.6935,-151.3874,Natural_gas,62.4
International,Anchorage,61.168972,-149.911038,Natural_gas,25.2
Hutchinson Plant #2,Hutchinson,44.888881,-94.34934799999999,Natural_gas,73.0
Rokeby,Lincoln,40.7316,-96.7364,Natural_gas,255.1
Valencia,Nogales,31.363471999999998,-110.931343,Natural_gas,60.3
Waverly Municipal Electric North Plant,Waverly,42.7317,-92.4711,Natural_gas,10.9
D G Hunter,Alexandria,31.3207,-92.4613,Natural_gas,60.2
George M Sullivan Generation Plant 2,Anchorage,61.229713000000004,-149.716744,Natural_gas,309.3
A L Pierce,Wallingford,41.44823,-72.834884,Natural_gas,74.1
Rawhide,Wellington,40.860904999999995,-105.021207,Natural_gas,388.0
Augusta Electric Plant No 2,Augusta,37.686085,-96.96498199999999,Natural_gas,20.1
Hugoton 2,Hugoton,37.16424,-101.340133,Natural_gas,0.5
East 12th Street,Winfield,37.2367,-96.9625,Natural_gas,25.8
Chanute 3,Chanute,37.6376,-95.4704,Natural_gas,20.7
Whitehead,Springville,40.1817,-111.6203,Natural_gas,26.8
Gravel Neck,Surry,37.1575,-76.6911,Natural_gas,340.0
Sibley No Two,Sibley,43.396851,-95.74965999999999,Natural_gas,1.0
McIntosh (AL),McIntosh,31.2546,-88.0299,Natural_gas,688.0
Harry Allen,Las Vegas,36.430554,-114.902405,Natural_gas,654.0
Heber City,Heber City,40.503679999999996,-111.425246,Natural_gas,14.1
Brandon Station,Lubbock,33.585257,-101.886093,Natural_gas,20.0
Forked River,Forked River,39.8154,-74.2098,Natural_gas,65.0
Pleasant Hill,Pleasant Hill,41.5572,-93.5242,Natural_gas,155.5
Hay Road,Wilmington,39.7436,-75.5072,Natural_gas,1136.0
Woodsdale,Trenton,39.4492,-84.4611,Natural_gas,476.0
Concord,Watertown,43.1669,-88.69,Natural_gas,363.9
Barrow,Barrow,71.292,-156.7786,Natural_gas,20.3
South Fond Du Lac,Fond du Lac,43.7353,-88.496667,Natural_gas,323.9
Darbytown,Richmond,37.498222999999996,-77.368544,Natural_gas,336.0
Gianera,Santa Clara,37.400999999999996,-121.96866999999999,Natural_gas,49.6
Santa Clara Cogen,Santa Clara,37.364297,-121.94423799999998,Natural_gas,7.0
Angus Anson,Sioux Falls,43.60347,-96.6356,Natural_gas,327.0
Cane Island,Intercession City,28.2764,-81.533,Natural_gas,679.0
Polk,Mulberry,27.7286,-81.9897,Natural_gas,1061.0
Woodland,Modesto,37.652602,-121.020397,Natural_gas,177.2
491 E 48th Street,Holland,42.7553,-86.0853,Natural_gas,145.0
Paris (WI),Union Grove,42.6658,-88.0131,Natural_gas,362.3
Lincoln Combustion,Stanley,35.4317,-81.0347,Natural_gas,1193.0
Gardner Energy Center,Gardner,38.830833,-94.89027800000001,Natural_gas,27.0
Paragould Turbine,Paragould,36.024271999999996,-90.509229,Natural_gas,13.6
Sherman Avenue,Vineland,39.451,-75.0578,Natural_gas,82.4
Central Energy Plant,Lake Buena Vista,28.4263,-81.5809,Natural_gas,56.0
State Line Combined Cycle,Joplin,37.0659,-94.61399999999999,Natural_gas,589.0
Hines Energy Complex,Bartow,27.788215,-81.86998299999999,Natural_gas,2045.0
Redding Power,Redding,40.507292,-122.423281,Natural_gas,171.0
Richard M Flynn,Holtsville,40.8158,-73.064,Natural_gas,136.9
Almond Power Plant,Modesto,37.5744,-120.985,Natural_gas,199.5
Van Sant Station,Dover,39.145036,-75.548172,Natural_gas,44.4
San Jacinto Steam Electric Station,La Porte,29.694838,-95.040622,Natural_gas,162.0
Richmond,Centerville,39.839572,-84.965682,Natural_gas,68.0
Anderson,Anderson,40.0529,-85.7389,Natural_gas,140.0
Wellington 2,Wellington,37.2678,-97.3497,Natural_gas,21.0
University of Florida,Gainesville,29.640278000000002,-82.348611,Natural_gas,44.0
Robins,Robins AFB,32.5792,-83.5822,Natural_gas,160.0
Coyote Springs,Boardman,45.847998,-119.67392,Natural_gas,243.0
Midulla Generating Station,Bowling Green,27.641666999999998,-81.9625,Natural_gas,816.0
Poplar Bluff Generating Station,Poplar Bluff,36.7597,-90.3903,Natural_gas,27.2
Falling Spring,Chambersburg,39.9389,-77.6583,Natural_gas,7.1
Water Street Station,Bay City,43.582846,-83.89669599999999,Natural_gas,12.0
Henry Station,Bay City,43.595101,-83.89986,Natural_gas,15.0
Payson,Payson,40.06084,-111.73023,Natural_gas,9.2
Interstate,Springfield,39.8233,-89.5891,Natural_gas,112.0
Pratt 2,Pratt,37.6356,-98.745,Natural_gas,15.2
Combustion Turbine Project No 2,Lodi,38.088138,-121.386944,Natural_gas,49.3
Alameda,Alameda,37.7886,-122.2889,Natural_gas,43.6
Lodi,Lodi,38.146571,-121.300541,Natural_gas,23.3
Roseville,Lincoln,38.810677,-121.323807,Natural_gas,42.4
Rathdrum,Rathdrum,47.80427,-116.86731200000001,Natural_gas,132.0
Rowesville Rd Plant,Orangeburg,33.436637,-80.847389,Natural_gas,8.4
NSB Nuiqsut Utility,Nuiqsut,70.22056500000001,-150.993492,Natural_gas,2.2
Neil Simpson II,Gillette,44.2856,-105.3833,Natural_gas,34.0
Arthur Von Rosenberg,Elmendorf,29.257046000000003,-98.384045,Natural_gas,518.0
McPherson 3,McPherson,38.38932,-97.61108,Natural_gas,80.2
Carson Ice-Gen Project,Sacramento,38.445681,-121.462387,Natural_gas,109.0
Wayne County,Goldsboro,35.375789000000005,-78.098052,Natural_gas,857.0
Ponca City,Ponca City,36.71979,-97.085758,Natural_gas,106.8
SCA Cogen 2,Sacramento,38.530943,-121.40012800000001,Natural_gas,176.6
SPA Cogen 3,Sacramento,38.510999999999996,-121.4735,Natural_gas,178.0
Nebraska City # 2,Nebraska,40.6661,-95.86833299999999,Natural_gas,7.6
St Francis Energy Facility,Campbell,36.5852,-90.1779,Natural_gas,425.0
River Road Gen Plant,Vancouver,45.6497,-122.7256,Natural_gas,220.0
Washington County Cogeneration Facility,McIntosh,31.2504,-88.0156,Natural_gas,100.0
General Electric Plastic,Burkeville,32.310226,-86.52542,Natural_gas,84.5
Tiger Bay,Ft. Meade,27.746369,-81.849446,Natural_gas,200.0
Dahlberg,Nicholson,34.042266999999995,-83.39772099999999,Natural_gas,746.9
H Allen Franklin Combined Cycle,Smiths,32.6078,-85.0975,Natural_gas,1901.8
Pea Ridge,Pace,30.59208,-87.135391,Natural_gas,12.0
Theodore Cogen Facility,Theodore,30.525445,-88.128477,Natural_gas,231.0
Essex,Essex,36.868206,-89.840173,Natural_gas,98.0
Nodaway,Conception Junction,40.2877,-94.7913,Natural_gas,175.0
Chouteau,Pryor,36.222058000000004,-95.277064,Natural_gas,896.0
Georgetown,Indianapolis,39.902556,-86.24405,Natural_gas,276.0
Tilton,Tilton,40.106125,-87.653818,Natural_gas,183.1
Henry County,New Castle,39.9528,-85.5039,Natural_gas,129.0
MPC Generating,Monroe,33.8119,-83.6953,Natural_gas,302.5
Sowega Power,Baconton,31.3869,-84.08,Natural_gas,97.0
1515 S Caron Road,Rochelle,41.9084,-89.0466,Natural_gas,3.0
Hamilton Peaking,Hamilton,39.3528,-84.5183,Natural_gas,29.0
Bowling Green Peaking,Bowling Green,41.3884,-83.6402,Natural_gas,29.0
Allegany Cogen,Fillmore,42.5027,-78.0686,Natural_gas,60.0
Custer Energy Center,Manitowoc,44.085437,-87.726102,Natural_gas,22.0
West Marinette 34,Peshtigo,45.0869,-87.6892,Natural_gas,70.4
Sherwood H Smith Jr Energy Complex,Hamlet,34.8392,-79.7406,Natural_gas,1845.0
Sewell Creek Energy,Cedartown,33.9486,-85.2769,Natural_gas,451.1
Alsey,Alsey,39.569771,-90.43602,Natural_gas,164.3
Rockwood,Brawley,32.9553,-115.5364,Natural_gas,24.1
Fulton (AR),Fulton,33.6094,-93.7924,Natural_gas,153.0
Rowan,Salisbury,35.7314,-80.6019,Natural_gas,961.0
Smarr Energy Center,Forsyth,32.9842,-83.8464,Natural_gas,187.4
John S Rainey,Starr,34.347734,-82.774478,Natural_gas,977.0
Essential Power Rock Springs LLC,Rising Sun,39.71901,-76.15975999999999,Natural_gas,670.9
Marsh Run Generation Facility,Remington,38.5283,-77.7681,Natural_gas,481.3
Louisa Generation Facility,Gordonsville,38.1181,-78.2139,Natural_gas,466.0
Remington,Remington,38.5442,-77.7714,Natural_gas,608.0
Ladysmith,Woodford,38.0722,-77.5133,Natural_gas,783.0
Freedom Power Project,St. Elmo,39.103333,-88.85898,Natural_gas,45.0
Pleasant Valley (MN),Dexter,43.799446,-92.682874,Natural_gas,435.5
Minnesota River,Chaska,44.795231,-93.581013,Natural_gas,39.0
Lagoon Creek,Brownsville,35.6578,-89.3964,Natural_gas,1407.0
Brandy Branch,Baldwin,30.320556,-81.947222,Natural_gas,723.2
Holden,Holden,38.7538,-93.9983,Natural_gas,264.0
MEPI GT Facility,Joppa,37.2175,-88.8661,Natural_gas,239.0
Elk Mound,Elk Mound,44.902814,-91.568096,Natural_gas,64.6
Glenwood Landing,Glenwood Landing,40.8275,-73.6478,Natural_gas,80.0
Encogen,Bellingham,48.746,-122.486,Natural_gas,159.4
Robert P Mone Plant,Convoy,40.9297,-84.7392,Natural_gas,435.0
H L Culbreath Bayside Power Station,Tampa,27.9072,-82.4231,Natural_gas,1854.0
Terry Bundy Generating Station,Lincoln,40.909653000000006,-96.613086,Natural_gas,163.7
E B Harris Electric Generating Plant,Autaugaville,32.381352,-86.574366,Natural_gas,1314.8
Sand Hill,Austin,30.2098,-97.6129,Natural_gas,595.8
McCartney,Strafford,37.248431,-93.170839,Natural_gas,100.0
Vernon Boulevard,Long Island City,40.7537,-73.9508,Natural_gas,79.9
Joseph J Seymour Power Project,Brooklyn,40.6631,-74.0,Natural_gas,79.9
Brentwood,Long Island,40.787062,-73.293412,Natural_gas,43.8
Hell Gate,Bronx,40.799,-73.9094,Natural_gas,79.9
Harlem River Yard,Bronx,40.7991,-73.9156,Natural_gas,79.9
North 1st,Brooklyn,40.7171,-73.9664,Natural_gas,45.9
Talbot County Energy,Box Springs,32.5892,-84.6917,Natural_gas,579.1
Chattahoochee Energy Facility,Franklin,33.4072,-85.0386,Natural_gas,457.9
Lakefield Junction,Trimont,43.798439,-94.841451,Natural_gas,500.1
Osawatomie,Miami,38.532161,-94.902633,Natural_gas,75.7
West Gardner,Johnson,38.7875,-94.9861,Natural_gas,312.9
Russell Energy Center,Russell,38.899722,-98.839444,Natural_gas,12.0
Coyote Springs II,Boardman,45.848039,-119.673965,Natural_gas,290.0
Gaylord - Wolverine,Gaylord,45.0046,-84.7218,Natural_gas,60.6
Wansley Unit 9,Franklin,33.4083,-85.0403,Natural_gas,489.6
Solway CT,Solway,47.544582,-95.12965200000001,Natural_gas,44.0
Lawrence County Station,Mitchell,38.8003,-86.4511,Natural_gas,262.8
Evander Andrews Power Complex,Mountain Home,43.179176,-115.734315,Natural_gas,251.4
Kemper County,De Kalb,32.7976,-88.60600000000001,Natural_gas,293.2
Warren F Sam Beasley Generation Station,Smyrna,39.279179,-75.623928,Natural_gas,98.0
Peno Creek,Bowling Green,39.3531,-91.2295,Natural_gas,188.0
Lordsburg Generating,Lordsburg,32.35051,-108.69798999999999,Natural_gas,74.0
Sumpter,Belleville,42.167,-83.5318,Natural_gas,308.4
Pyramid,Lordsburg,32.2363,-108.5494,Natural_gas,158.0
Mill Creek (SC),Blacksburg,35.1597,-81.4306,Natural_gas,563.0
Kalkaska CT #1,Kalkaska,44.6889,-85.2019,Natural_gas,48.8
Greater Des Moines,Pleasant Hill,41.5563,-93.5283,Natural_gas,484.4
Lake One,Burbank,34.1772,-118.3147,Natural_gas,48.0
Silver Creek,Prentiss,31.6004,-89.9468,Natural_gas,225.0
Sylvarena,Raleigh,31.982076,-89.41271400000001,Natural_gas,129.0
West Campus Cogeneration Facility,Madison,43.075071,-89.4251,Natural_gas,130.1
Grays Harbor Energy Facility,Elma,46.9692,-123.48,Natural_gas,604.0
Beatrice,Beatrice,40.330184,-96.808153,Natural_gas,220.0
Roseton Generating Facility,Newsburgh,41.573783,-73.966269,Natural_gas,1182.7
Mickleton Station,Mickleton,39.8119,-75.249031,Natural_gas,64.9
Auburn State Street,Auburn,42.9278,-76.5921,Natural_gas,5.3
Murray Turbine,Murray,40.67,-111.89,Natural_gas,36.0
Paragould Reciprocating,Paragould,36.0242,-90.5094,Natural_gas,18.0
Boulder Park,Spokane,47.697222,-117.147222,Natural_gas,24.6
Hartzog,Wright,43.8294,-105.5322,Natural_gas,15.0
Blue Lake,Shakopee,44.7855,-93.4315,Natural_gas,300.0
Arvada,Arvada,44.69,-106.1092,Natural_gas,15.0
Sycamore (IA),Johnston,41.6722,-93.6769,Natural_gas,143.8
Barber Creek,Gillette,43.7219,-105.7689,Natural_gas,15.0
Emery Station,Clear Lake,43.093999999999994,-93.292222,Natural_gas,518.8
Yankton,Yankton,42.893333,-97.35333299999999,Natural_gas,8.7
Clifton,Clifton,39.6125,-97.2778,Natural_gas,68.0
Anclote,Holiday,28.184444,-82.788611,Natural_gas,1003.0
Intercession City,Intercession City,28.262778000000004,-81.548611,Natural_gas,534.0
Pouch,Staten Island,40.6182,-74.06849,Natural_gas,45.6
Gerald Andrus,Greenville,33.35,-91.1167,Natural_gas,736.0
Waterford 1 & 2,Killona,29.998884000000004,-90.47684,Natural_gas,838.5
Comanche (OK),Lawton,34.5431,-98.3244,Natural_gas,260.0
DeCordova Steam Electric Station,Granbury,32.403056,-97.700556,Natural_gas,282.0
Fort Lupton,Ft. Lupton,40.0922,-104.796,Natural_gas,88.0
Santan,Gilbert,33.3325,-111.7503,Natural_gas,1227.0
Beaver,Clatskanie,46.172401,-123.17392,Natural_gas,485.0
Ellwood,Goleta,34.431419,-119.90005500000001,Natural_gas,54.0
Tipton,Tipton,41.7717,-91.1321,Natural_gas,4.4
Stanberry,Stanberry,40.212746,-94.54235899999999,Natural_gas,4.0
Ray D Nixon,Fountain,38.633451,-104.70577,Natural_gas,60.0
Astoria Generating Station,Astoria,40.787673999999996,-73.912561,Natural_gas,1322.0
Nine Springs,Madison,43.0386,-89.3586,Natural_gas,12.5
Colorado Energy Nations Company,Golden,39.7606,-105.215,Natural_gas,40.0
Baptist Medical Center,Jacksonville,30.314466999999997,-81.662705,Natural_gas,8.1
Cutrale Citrus Juices USA I,Leesburg,28.811828000000002,-81.865273,Natural_gas,4.3
General Electric Aircraft Engines,Lynn,42.45,-70.9739,Natural_gas,23.8
Energy Center Dover,Dover,39.149549,-75.547335,Natural_gas,103.0
Gilroy Power Plant,Gilroy,37.0001,-121.5367,Natural_gas,115.0
Kaweah Delta District Hospital,Visalia,36.3275,-119.2947,Natural_gas,3.5
"Mars Wrigley Confectionery US, LLC",Hackettstown,40.8625,-74.825,Natural_gas,9.5
Pedricktown Cogeneration Company LP,Pedricktown,39.7668,-75.4238,Natural_gas,115.3
Hampton Facility,Hampton,42.9383,-70.8406,Natural_gas,3.8
Frito-Lay Cogen Plant,Bakersfield,35.395063,-119.321633,Natural_gas,5.5
Grossmont Hospital,La Mesa,32.77973,-117.00639699999999,Natural_gas,4.2
CIP II/AR Bridgewater Holdings - NJCOE,Bridgewater,40.624,-74.634,Natural_gas,4.1
Hoffmann LaRoche,Nutley,40.8359,-74.155,Natural_gas,8.2
Indiana University of Pennsylvania,Indiana,40.6144,-79.1594,Natural_gas,24.0
White Pine Electric Power,White Pine,46.7644,-89.5669,Natural_gas,18.0
Decorative Panels Intl,Alpena,45.062836,-83.423333,Natural_gas,7.0
Power Island,Alvin,29.2293,-95.1952,Natural_gas,80.0
Fresno Cogen Partners,San Joaquin,36.617022,-120.099846,Natural_gas,72.9
Carson Cogeneration,Carson,33.8759,-118.2491,Natural_gas,49.3
Childrens Hospital,San Diego,32.7992,-117.1517,Natural_gas,4.8
Central Utility Plant,Austin,30.397351,-97.842586,Natural_gas,8.3
Cutrale Citrus Juices USA II,Auburndale,28.05485,-81.79816600000001,Natural_gas,8.6
Castleton Energy Center,Castleton,42.5375,-73.7433,Natural_gas,67.7
CF Industries Yazoo City Complex,Yazoo City,32.904109999999996,-90.3781,Natural_gas,20.0
Loma Linda University Cogen,Loma Linda,34.050391,-117.24841699999999,Natural_gas,9.6
El Segundo Cogen,El Segundo,33.9058,-118.4031,Natural_gas,171.6
Snowbird Power Plant,Snowbird,40.58337,-111.653903,Natural_gas,1.8
Merck Rahway Power Plant,Rahway,40.615615999999996,-74.26529000000001,Natural_gas,20.9
Biron Mill,Wisconsin Rapids,44.43,-89.78,Natural_gas,20.0
Ticona Polymers Inc,Bishop,27.5697,-97.8228,Natural_gas,32.5
Pixelle Specialty Solutions LLC - Chillicothe Facility,Chillicothe,39.324611,-82.974039,Natural_gas,3.8
Enterprise Products Operating,Mont Belvieu,29.8247,-94.9197,Natural_gas,18.0
California Institute of Technology,Pasadena,34.138467,-118.1256,Natural_gas,11.1
Florida's Natural Growers,Lake Wales,27.9114,-81.6006,Natural_gas,8.3
King City Power Plant,King City,36.225,-121.1278,Natural_gas,111.0
Bayou Cogen Plant,Pasadena,29.6225,-95.0458,Natural_gas,290.0
Louisiana Sugar Refining,Gramercy,30.0497,-90.6839,Natural_gas,5.3
Juniata Locomotive Shop,Altoona,40.533299,-78.384125,Natural_gas,1.5
Bellingham Cogeneration Facility,Bellingham,42.0925,-71.4833,Natural_gas,264.0
Sayreville Cogeneration Facility,Sayreville,40.439,-74.3444,Natural_gas,292.0
Geismar,Geismar,30.2,-91.0,Natural_gas,80.1
T B Simon Power Plant,East Lansing,42.7178,-84.4836,Natural_gas,97.4
Southside Water Reclamation Plant,Albuquerque,35.016110999999995,-106.669722,Natural_gas,4.2
Foster Wheeler Martinez,Martinez,38.0244,-122.0589,Natural_gas,103.5
Greenleaf 2 Power Plant,Yuba City,39.1365,-121.6397,Natural_gas,49.5
Consumer Operations LLC,Green Bay,44.4936,-88.0303,Natural_gas,79.0
Savannah River Mill,Rincon,32.331274,-81.20149599999999,Natural_gas,42.8
Muskogee Mill,Muskogee,35.7322,-95.2939,Natural_gas,67.5
Kingsburg Cogen,Kingsburg,36.5397,-119.5794,Natural_gas,33.8
Clark University,Worcester,42.2508,-71.8226,Natural_gas,2.0
Pensacola Florida Plant,Cantonment,30.5958,-87.2525,Natural_gas,98.0
Indian Orchard Plant 1,Springfield,42.156898,-72.524153,Natural_gas,3.0
New-Indy Ontario Mill,Ontario,34.045361,-117.54019299999999,Natural_gas,29.4
Anheuser-Busch St Louis,St. Louis,38.597755,-90.21067099999999,Natural_gas,26.1
Anheuser-Busch Jacksonville,Jacksonville,30.434240000000003,-81.645351,Natural_gas,8.7
ExxonMobil Baytown Refinery,Baytown,29.753517,-94.997277,Natural_gas,128.0
Mead Rumford Cogen,Rumford,44.546503,-70.544286,Natural_gas,12.5
Kern River Cogeneration,Bakersfield,35.4515,-118.9849,Natural_gas,288.0
Mid-Set Cogeneration,Fellows,35.194559999999996,-119.57096999999999,Natural_gas,36.0
Lederle Laboratories,Pearl River,41.0772,-74.0181,Natural_gas,21.7
San Jose Cogeneration,San Jose,37.336113,-121.878332,Natural_gas,5.6
Formosa Utility Venture Ltd,Point Comfort,28.6917,-96.5417,Natural_gas,597.3
Algonquin Windsor Locks,Windsor Locks,41.9227,-72.6255,Natural_gas,64.0
Port Arthur Texas Refinery,Port Arthur,29.964938,-93.891283,Natural_gas,28.0
CH Resources Beaver Falls,Beaver Falls,43.8861,-75.4342,Natural_gas,80.4
Carthage Energy LLC,Carthage,43.9842,-75.6225,Natural_gas,61.1
CH Resources Syracuse,Solvay,43.0664,-76.2144,Natural_gas,85.3
Civic Center,Los Angeles,34.0564,-118.2436,Natural_gas,23.6
Hopewell Cogeneration,Hopewell,37.291667,-77.281111,Natural_gas,378.3
Bear Mountain Limited,Bakersfield,35.419181,-118.926643,Natural_gas,46.0
Badger Creek Limited,Bakersfield,35.483736,-119.02985600000001,Natural_gas,46.0
CES Placerita Power Plant,Santa Clarita,34.3801,-118.4999,Natural_gas,69.0
Brush Generation Facility,Brush,40.2415,-103.631,Natural_gas,292.0
Westend Facility,Trona,35.7075,-117.3956,Natural_gas,15.0
ExxonMobil Baton Rouge Turbine Generator,Baton Rouge,30.489721999999997,-91.18722199999999,Natural_gas,78.9
ExxonMobil Baytown Turbine,Baytown,29.759124,-95.009648,Natural_gas,326.0
Graphic Packaging,Kalamazoo,42.306809,-85.578969,Natural_gas,1.5
Kyocera America Project,San Diego,32.819675,-117.140548,Natural_gas,3.8
Selkirk Cogen,Selkirk,42.5744,-73.8592,Natural_gas,360.2
Masspower,Indian Orchard,42.1575,-72.5225,Natural_gas,245.0
Midland Cogeneration Venture,Midland,43.5861,-84.2242,Natural_gas,1859.4
Camden Plant Holdings LLC,Camden,39.9175,-75.1192,Natural_gas,145.0
Rifle Generating Station,Rifle,39.5173,-107.7299,Natural_gas,73.0
Las Vegas Generating Station,North Las Vegas,36.2319,-115.1222,Natural_gas,282.0
E F Oxnard Energy Facility,Oxnard,34.1958,-119.1664,Natural_gas,48.5
Sabine River Works,Orange,30.0552,-93.7579,Natural_gas,507.0
Victoria Texas Plant,Victoria,28.675088,-96.956014,Natural_gas,75.0
Camden South Carolina,Lugoff,34.2338,-80.6558,Natural_gas,17.5
Ogdensburg Power,Ogdensburg,44.7258,-75.4417,Natural_gas,23.0
Kenilworth Energy Facility,Kenilworth,40.6781,-74.2744,Natural_gas,24.5
Ada Cogeneration LP,ADA,42.962672,-85.49407099999999,Natural_gas,30.0
Cargill Corn Milling Division,Eddyville,41.1386,-92.6467,Natural_gas,36.7
Archer Daniels Midland Cedar Rapids,Cedar Rapids,41.9221,-91.6875,Natural_gas,35.0
Archer Daniels Midland Peoria,Peoria,40.677188,-89.604911,Natural_gas,30.0
Hazelton,Hazelton,40.928160999999996,-76.040929,Natural_gas,145.6
Medical Area Total Energy Plant,Boston,42.33685,-71.10815,Natural_gas,60.5
Olive View Medical Center,Sylmar,34.326242,-118.44476999999999,Natural_gas,5.4
Pittsfield Generating LP,Pittsfield,42.4564,-73.2181,Natural_gas,151.4
Chalk Cliff Limited,Bakersfield,35.0968,-119.4299,Natural_gas,46.0
Linden Cogen Plant,Linden,40.6322,-74.2156,Natural_gas,952.3
Corpus Refinery,Corpus Christi,27.8322,-97.5281,Natural_gas,32.0
Plant 31 Paper Mill,West Monroe,32.486787,-92.149597,Natural_gas,32.0
Norton Powerhouse,Worcester,42.309554999999996,-71.80521800000001,Natural_gas,5.6
Houston Chemical Complex Battleground,Houston,29.7314,-95.0839,Natural_gas,263.0
Rice University,Houston,29.721048,-95.39536,Natural_gas,6.9
San Diego State University,San Diego,32.778225,-117.07011399999999,Natural_gas,13.3
Univ of Calif Santa Cruz Cogeneration,Santa Cruz,36.9997,-122.0622,Natural_gas,4.4
Univ of Massachusetts Medical Center,Worcester,42.279015,-71.759772,Natural_gas,12.0
Univ of San Francisco Cogen,San Francisco,37.776559999999996,-122.45187800000001,Natural_gas,1.4
"Vicinity Energy Trenton, L.P.",Trenton,40.2167,-74.7667,Natural_gas,5.8
Paris Energy Center,Paris,33.6968,-95.5577,Natural_gas,236.0
US Borax,Boron,35.0329,-117.70100000000001,Natural_gas,39.0
Hal C Weaver Power Plant,Austin,30.2867,-97.7356,Natural_gas,146.8
Signal Hill Generating LLC,Wichita Falls,33.8625,-98.5894,Natural_gas,76.1
Coalinga Cogeneration,Coalinga,36.1807,-120.3885,Natural_gas,36.0
Sycamore Cogeneration,Bakersfield,35.452577000000005,-118.98531299999999,Natural_gas,300.0
South Oaks Hospital,Amityville,40.6853,-73.4258,Natural_gas,0.5
Newgulf Cogen,NewGulf,29.2639,-95.8997,Natural_gas,69.0
Imperial Savannah LP,Port Wentworth,32.143989000000005,-81.14655,Natural_gas,11.2
Linde Wilmington,Wilmington,33.78856,-118.22939199999999,Natural_gas,27.0
Union Carbide Seadrift Cogen,Seadrift,28.5105,-96.7706,Natural_gas,153.0
Dow St Charles Operations,Taft,29.9861,-90.4414,Natural_gas,270.0
Wichita Plant,Wichita,37.581339,-97.424133,Natural_gas,27.0
Berry Cogen,Taft,35.093046,-119.44361699999999,Natural_gas,35.0
B Braun Medical,Irvine,33.688721,-117.83479299999999,Natural_gas,5.7
US Gypsum Oakfield,Oakfield,43.0647,-78.2972,Natural_gas,4.9
Watson Cogeneration,Carson,33.816646999999996,-118.244841,Natural_gas,398.0
Texas Petrochemicals,Houston,29.6981,-95.2547,Natural_gas,35.0
San Antonio Regional Hospital,Upland,34.1019,-117.6381,Natural_gas,2.7
Purdue University,West Lafayette,40.4172,-86.9122,Natural_gas,37.8
Tenet Hospital,El Paso,31.7697,-106.5014,Natural_gas,2.1
ExxonMobil Santa Ynez Facility,Goleta,34.464819,-120.04436499999998,Natural_gas,49.1
Park 500 Philip Morris USA,Chester,37.3389,-77.2806,Natural_gas,10.5
Archbald Power Station,Archbald,41.485,-75.5406,Natural_gas,43.7
Bethpage Power Plant,Hicksville,40.7469,-73.4994,Natural_gas,184.0
AltaGas Ripon Energy Inc.,Ripon,37.732533000000004,-121.116006,Natural_gas,46.1
University of Oklahoma,Norman,35.2089,-97.4424,Natural_gas,16.8
Standby Generation Plant,Pensacola,30.4736,-87.2361,Natural_gas,13.7
Bunge North America East LLC,Decatur,40.846525,-84.93326400000001,Natural_gas,2.2
Par Sterile Products,Rochester,42.68367,-83.11434,Natural_gas,2.8
Nalco,Naperville,41.800909000000004,-88.197156,Natural_gas,3.7
Mooseheart Power House,Mooseheart,41.8244,-88.3331,Natural_gas,1.8
University of Notre Dame,Notre Dame,41.7094,-86.2367,Natural_gas,15.9
Cornell University Central Heat,Ithaca,42.4428,-76.4764,Natural_gas,30.9
Paxton Creek Cogeneration,Harrisburg,40.2653,-76.8771,Natural_gas,12.0
Newark Bay Cogeneration Partnership LP,Newark,40.7197,-74.13,Natural_gas,120.2
Port Allen (LA),Port Allen,30.476999999999997,-91.211,Natural_gas,7.0
Georgia-Pacific Corp - Nekoosa Mill,Nekoosa,44.3142,-89.8964,Natural_gas,18.7
Pixelle Specialty Solutions LLC - Spring Grove Facility,Spring Grove,39.870934999999996,-76.868117,Natural_gas,17.7
International Paper Savanna Mill,Savannah,32.100353999999996,-81.124248,Natural_gas,71.2
Rutgers Biomedical and Health Cogen,Newark,40.73928,-74.18763299999999,Natural_gas,10.2
Bronx Zoo,New York,40.844114000000005,-73.876888,Natural_gas,3.6
University of Michigan,Ann Arbor,42.281166999999996,-83.734617,Natural_gas,41.5
Indeck Silver Springs Energy Center,Silver Springs,42.6544,-78.0772,Natural_gas,49.8
Indeck Oswego Energy Center,Oswego,43.471745,-76.49347399999999,Natural_gas,49.8
Indeck Yerkes Energy Center,Tonawanda,42.9671,-78.9182,Natural_gas,48.7
Procter & Gamble Cincinnati Plant,Cincinnati,39.175,-84.5042,Natural_gas,11.7
Indeck Corinth Energy Center,Corinth,43.25,-73.8125,Natural_gas,128.8
Procter & Gamble Mehoopany Mill,Mehoopany,41.574259000000005,-76.043233,Natural_gas,104.9
Oxnard,Oxnard,34.196,-119.1667,Natural_gas,70.9
Corpus Christi,Corpus Christi,27.811083,-97.595813,Natural_gas,33.0
Packaging of America Tomahawk Mill,Tomahawk,45.4431,-89.7342,Natural_gas,13.6
Tennessee Eastman Operations,Kingsport,36.5219,-82.5431,Natural_gas,63.0
PPG Powerhouse C,Lake Charles,30.22612,-93.29517299999999,Natural_gas,303.2
PPG Plant C Caustic,Lake Charles,30.226444,-93.29376500000001,Natural_gas,2.7
Axiall Natrium Plant,New Martinsville,39.7475,-80.8547,Natural_gas,115.5
Double C Generation Limited Partnership,Bakersfield,35.5005,-119.046,Natural_gas,46.0
Kern Front Limited,Bakersfield,35.51647,-119.040128,Natural_gas,46.0
High Sierra Limited,Bakersfield,35.509040999999996,-119.030546,Natural_gas,46.0
Capitol District Energy Center,Hartford,41.7639,-72.6925,Natural_gas,51.5
SRI International Cogen Project,Menlo Park,37.455314,-122.172797,Natural_gas,5.6
BP Carson Refinery,Carson,33.8153,-118.2358,Natural_gas,1.5
Harbor Cogen,Wilmington,33.7771,-118.2303,Natural_gas,101.7
Frontier,Oklahoma City,35.439721999999996,-97.625,Natural_gas,111.4
Eagle Point Power Generation,Westville,39.8746,-75.1592,Natural_gas,244.0
Milam Gas Recovery,East St. Lois,38.6603,-90.1317,Natural_gas,2.4
Saint Johns Health Center,Santa Monica,34.030318,-118.47843999999999,Natural_gas,1.0
McKittrick Limited,Bakersfield,35.319503000000005,-119.661992,Natural_gas,46.0
Central Power Plant,Cranston,41.744973,-71.458415,Natural_gas,8.1
Berry Cogen Tanne Hills 18,Maricopa,35.089828999999995,-119.440881,Natural_gas,14.0
Gaviota Oil Plant,Goleta,34.475066999999996,-120.20510700000001,Natural_gas,12.0
ExxonMobil Beaumont Refinery,Beaumont,30.0636,-94.0753,Natural_gas,605.6
Paulsboro Refinery,Paulsboro,39.84,-75.2583,Natural_gas,27.0
Clearwater Paper IPP Lewiston,Lewiston,46.423056,-116.97638899999998,Natural_gas,5.3
Municipal Cogen Plant,Palm Springs,33.8247,-116.5106,Natural_gas,1.2
JM Shafer Generating Station,Ft. Lupton,40.0986,-104.7736,Natural_gas,272.0
BP Naperville Cogeneration Facility,Naperville,41.8108,-88.1486,Natural_gas,7.0
Sterling Power Plant,Sherrill,43.080338,-75.60096300000001,Natural_gas,54.8
Agnews Power Plant,San Jose,37.4058,-121.9272,Natural_gas,31.7
Coalinga Cogeneration Facility,Coalinga,36.170317,-120.364084,Natural_gas,6.4
Southeast Kern River Cogen,Bakersfield,35.4206,-118.9644,Natural_gas,26.8
South Belridge Cogeneration Facility,McKittrick,35.438611,-119.7075,Natural_gas,57.0
Parlin Power Plant,Parlin,40.460716999999995,-74.327161,Natural_gas,114.6
Seminole Mill,Jacksonville,30.4178,-81.5978,Natural_gas,20.0
Optim Energy Altura Cogen LLC,Channelview,29.8161,-95.10773,Natural_gas,537.2
Gramercy Holdings LLC,Gramercy,30.054000000000002,-90.6693,Natural_gas,76.0
PE Berkeley,Berkeley,37.870331,-122.26337,Natural_gas,24.0
OLS Energy Chino,Chino,33.989626,-117.68091100000001,Natural_gas,29.0
CSUCI Site Authority,Camarillo,34.161951,-119.04791599999999,Natural_gas,28.3
Elmwood Park Power LLC,Elmwood Park,40.905337,-74.130448,Natural_gas,70.0
Sargent Canyon Cogeneration,Bakersfield,35.9359,-120.8408,Natural_gas,30.0
Salinas River Cogeneration,San Ardo,35.9515,-120.8679,Natural_gas,33.0
Sagamore Plant Cogeneration,Lafayette,40.4439,-86.86,Natural_gas,7.4
Ford Utilities Center,Albuquerque,35.084078000000005,-106.62519099999999,Natural_gas,12.2
Rhinelander Mill,Rhinelander,45.6394,-89.4205,Natural_gas,4.0
Caterpillar,Lafayette,40.4175,-86.8447,Natural_gas,6.5
Lagoon Cogeneration Facility,Farmington,40.9872,-111.8983,Natural_gas,1.5
Hardee Power Station,Bowling Green,27.6364,-81.9636,Natural_gas,373.0
Saint Francis Hospital,Evanston,42.0242,-87.6847,Natural_gas,1.6
Rousselot Inc,Peabody,42.521747,-70.93865699999999,Natural_gas,6.3
Naval Hospital Medical Center,San Diego,32.7261,-117.1464,Natural_gas,4.4
MU Combined Heat and Power Plant,Columbia,38.9461,-92.3328,Natural_gas,73.8
Tropicana Products Bradent,Bradenton,27.483358000000003,-82.54834100000001,Natural_gas,31.0
Motiva Enterprises Port Arthur Refinery,Port Arthur,29.888462,-93.95098399999999,Natural_gas,239.4
Carr Street Generating Station,East Syracuse,43.06132,-76.08239,Natural_gas,87.0
Solano County Cogen Plant,Fairfield,38.2494,-122.0394,Natural_gas,2.8
Ocean State Power,Harrisville,42.009722,-71.668909,Natural_gas,218.6
LaO Energy Systems,Plaquemine,30.3186,-91.2325,Natural_gas,384.0
Doswell Energy Center,Ashland,37.820805,-77.446246,Natural_gas,1164.8
ITT Cogen Facility,Chicago,41.83442,-87.628465,Natural_gas,7.0
Rhode Island Hospital,Providence,41.8103,-71.41,Natural_gas,10.4
Dartmouth Power Associates LP,Dartmouth,41.6731,-70.9994,Natural_gas,81.7
Vanderbilt University Power Plant,Nashville,36.145896,-86.803833,Natural_gas,17.6
Nassau Energy Corp,Garden City,40.7264,-73.5892,Natural_gas,55.0
Hartford Hospital Cogeneration,Hartford,41.7631,-72.6733,Natural_gas,10.0
Point Comfort Operations,Point Comfort,28.652709,-96.559997,Natural_gas,58.7
Radford Army Ammunition Plant,Radford,37.180440999999995,-80.542767,Natural_gas,22.4
UCLA So Campus Cogen Project,Los Angeles,34.0692,-118.4439,Natural_gas,36.0
McKittrick Cogen,McKittrick,35.3161,-119.6597,Natural_gas,9.6
Lost Hills Cogeneration Plant,Lost Hills,35.666111,-119.766944,Natural_gas,8.1
North Midway Cogen,McKittrick,35.2761,-119.5986,Natural_gas,9.0
Cymric 31X Cogen,McKittrick,35.3639,-119.6592,Natural_gas,5.4
Cymric 6Z Cogen,McKittrick,35.346102,-119.643431,Natural_gas,5.4
Coalinga 6C Cogen,Coalinga,36.2097,-120.3828,Natural_gas,5.4
Taft 26C Cogen,Taft,35.1133,-119.4706,Natural_gas,10.8
Coalinga 25D Cogen,Coalinga,36.1556,-120.3972,Natural_gas,10.8
Elizabeth River Power Station,Chesapeake,36.775,-76.3083,Natural_gas,348.0
Texas City Power Plant,Texas City,29.378697,-94.94382900000001,Natural_gas,451.0
Celanese Acetate LLC,Narrows,37.3439,-80.765,Natural_gas,27.2
Berry Placerita Cogen,Santa Clarita,34.38407,-118.494882,Natural_gas,39.2
Cymric 36W Cogen,McKittrick,35.3633,-119.6756,Natural_gas,10.8
Kern River Eastridge Cogen,Bakersfield,35.4406,-118.9617,Natural_gas,41.6
Richmond Cogen,Richmond,37.9418,-122.3909,Natural_gas,130.4
Freeport Energy,Freeport,28.991289000000002,-95.407481,Natural_gas,517.2
Wasson CO2 Removal Plant,Denver City,33.009944,-102.756945,Natural_gas,17.3
Power Station 4,Texas City,29.378164,-94.92195,Natural_gas,172.0
C P Kelco San Diego Plant,San Diego,32.6947,-117.1436,Natural_gas,27.8
Elkton,Elkton,38.3836,-78.6528,Natural_gas,7.7
West Point (PA),West Point,40.220453000000006,-75.301645,Natural_gas,70.8
International Paper Franklin Mill,Franklin,36.6803,-76.9128,Natural_gas,38.0
Riverbay,New York,40.869972,-73.824437,Natural_gas,38.4
Midway Sunset Cogen,Fellows,35.2269,-119.6294,Natural_gas,219.0
CITGO Refinery Powerhouse,Sulphur,30.1826,-93.3234,Natural_gas,30.8
C R Wing Cogen Plant,Big Spring,32.273178,-101.422386,Natural_gas,212.0
Tesoro Kenai Cogeneration Plant,Kenai,60.677,-151.3815,Natural_gas,8.4
Yuba City Cogen Partners,Yuba City,39.13667,-121.63984599999999,Natural_gas,48.7
Delaware City Plant,Delaware City,39.5871,-75.6343,Natural_gas,130.0
"WestRock Southeast, LLC.",Dublin,32.5036,-82.8443,Natural_gas,40.0
Rensselaer Cogen,Rensselaer,42.625325,-73.749955,Natural_gas,80.4
Lockport Energy Associates LP,Lockport,43.161947,-78.74497099999999,Natural_gas,208.8
University of Illinois Cogen Facility,Chicago,41.8675,-87.6524,Natural_gas,55.7
Pawtucket Power Associates,Pawtucket,41.861531,-71.406856,Natural_gas,60.0
Indeck Olean Energy Center,Olean,42.085944,-78.45425,Natural_gas,78.7
Spruance Operating Services LLC,Richmond,37.4556,-77.4308,Natural_gas,55.0
Mansfield Mill,Mansfield,32.1575,-93.5562,Natural_gas,45.0
International Paper Riverdale Mill,Selma,32.426016,-86.870912,Natural_gas,55.2
Kennedy International Airport Cogen,Jamaica,40.6417,-73.7778,Natural_gas,124.3
Fortistar North Tonawanda,North Tonawanda,43.0483,-78.8539,Natural_gas,59.1
Stony Brook Cogen Plant,Stony Brook,40.916833000000004,-73.129056,Natural_gas,44.5
Mississippi Baptist Medical Center,Jackson,32.3133,-90.1797,Natural_gas,4.0
Franklin Heating Station,Rochester,44.020576,-92.465599,Natural_gas,14.7
Gillette SBMC,Boston,42.3436,-71.0559,Natural_gas,12.2
Erving Paper Mills,Erving,42.5983,-72.3875,Natural_gas,5.9
Pfizer Groton Plant,Groton,41.3315,-72.0786,Natural_gas,32.0
Louisiana Tech University Power Plant,Ruston,32.5256,-92.6497,Natural_gas,6.4
Newman (PA),Philadelphia,40.013993,-75.05283,Natural_gas,1.8
Saint Marys Hospital Power Plant,Rochester,44.09785,-92.479815,Natural_gas,9.9
Akron Recycle Energy Plant,Akron,41.073336,-81.530642,Natural_gas,4.0
March Point Cogeneration,Anacortes,48.4708,-122.56,Natural_gas,120.2
Saguaro Power,Henderson,36.0417,-115.0117,Natural_gas,101.0
Biola University Hybrid,La Mirada,33.906953,-118.01310500000001,Natural_gas,2.2
Archer Daniels Midland Southport,Southport,33.9397,-77.9905,Natural_gas,45.0
Goodyear Beaumont Chemical Plant,Beaumont,29.9728,-94.2142,Natural_gas,29.0
Ocean State Power II,Harrisville,42.0099,-71.6701,Natural_gas,218.6
Westhollow Technology Center,Houston,29.726017,-95.638249,Natural_gas,3.7
Bucknell University,Lewisburg,40.955015,-76.878843,Natural_gas,5.3
Morton Salt Rittman,Rittman,40.9692,-81.7756,Natural_gas,2.5
NRG Energy San Diego,San Diego,32.7149,-117.1689,Natural_gas,1.6
Nevada Cogen Associates 2 Black Mountain,Las Vegas,36.2253,-114.8783,Natural_gas,93.1
Nevada Cogen Assoc#1 GarnetVly,Las Vegas,36.343229,-114.920686,Natural_gas,85.5
Graphic Packaging International Augusta Mill,Augusta,33.328259,-81.953078,Natural_gas,36.5
Orange Cogeneration Facility,Bartow,27.870820000000002,-81.825061,Natural_gas,110.6
University of Colorado,Boulder,40.00759,-105.269204,Natural_gas,31.0
Sinclair Oil Refinery,Sinclair,41.77952,-107.10972,Natural_gas,3.9
Waupun Correctional Central Heating Plt,Waupun,43.6233,-88.7297,Natural_gas,2.0
UW Madison Charter Street Plant,Madison,43.07,-89.4006,Natural_gas,9.7
Western Power & Steam Inc,Bakersfield,35.440539,-119.01286100000002,Natural_gas,19.6
Mulberry Cogeneration Facility,Bartow,27.8489,-81.8775,Natural_gas,115.0
Welport Lease Project,McKittrick,35.354444,-119.6617,Natural_gas,4.0
Dome Project,Fellows,35.220833,-119.583056,Natural_gas,5.0
Los Angeles Refinery Wilmington,Wilmington,33.7686,-118.2867,Natural_gas,6.1
Agrium Kenai Nitrogen Operations,Kenai,60.6732,-151.3784,Natural_gas,12.5
Orlando Cogen LP,Orlando,28.442622999999998,-81.412343,Natural_gas,120.0
Sumas Power Plant,Sumas,48.9905,-122.2733,Natural_gas,125.5
Oroville Cogeneration LP,Oroville,39.492,-121.5628,Natural_gas,7.7
Domino Sugar Arabi Plant,Arabi,29.9468,-90.0018,Natural_gas,7.7
WestRock (IL),Aurora,41.7697,-88.28,Natural_gas,2.9
Formosa Plastics,Baton Rouge,30.4992,-91.1872,Natural_gas,82.0
Village Creek Water Reclamation Facility,Arlington,32.775093,-97.14209,Natural_gas,6.0
Hoffer Plastics,South Elgin,41.998889,-88.302222,Natural_gas,7.2
Ferndale Generating Station,Ferndale,48.828996000000004,-122.68511399999998,Natural_gas,270.0
Hartwell Energy Facility,Hartwell,34.339588,-82.81987099999999,Natural_gas,298.1
Charter Dura-Bar,Woodstock,42.2891,-88.413,Natural_gas,5.4
Sithe Independence Station,Oswego,43.495,-76.4511,Natural_gas,971.0
ExxonMobil Mobile Bay Onshore,Theodore,30.432029999999997,-88.18241,Natural_gas,11.1
Ingredion Incorporated,Bedford Park,41.7775,-87.8233,Natural_gas,8.8
General Mills Inc,Buffalo,42.870968,-78.87554899999999,Natural_gas,3.4
Saranac Facility,Plattsburgh,44.7132,-73.4557,Natural_gas,250.4
Tanner Street Generation,Lowell,42.632124,-71.31323499999999,Natural_gas,75.0
Massena Energy Facility,Massena,44.9503,-74.8928,Natural_gas,81.0
Batavia Power Plant,Batavia,42.9828,-78.1592,Natural_gas,48.8
University of Arizona - Biosphere 2,Oracle,32.578011,-110.852608,Natural_gas,1.6
Warner Lambert,Ann Arbor,42.299332,-83.705318,Natural_gas,2.8
Pratt & Whitney,East Hartford,41.748327,-72.63669300000001,Natural_gas,28.0
Phelps Dodge Refining,El Paso,31.764458,-106.391314,Natural_gas,14.8
American Gypsum Cogeneration,Gypsum,39.648565000000005,-106.949394,Natural_gas,5.2
JCO Oxides Olefins Plant,Port Neeches,29.963502000000002,-93.929737,Natural_gas,61.0
NAEA Lakewood LLC,Lakewood,40.0613,-74.1686,Natural_gas,247.9
Chino Mines,Hurley,32.6956,-108.1225,Natural_gas,50.4
Oyster Creek Unit VIII,Freeport,28.9802,-95.34200000000001,Natural_gas,379.0
Amalgamated Sugar LLC Nampa,Nampa,43.6058,-116.5753,Natural_gas,8.2
York Generation Company LLC,York,39.985640999999994,-76.676158,Natural_gas,46.2
Yuma Cogeneration Associates,Yuma,32.728821999999994,-114.654053,Natural_gas,52.2
Yellowhammer Gas Plant,Coden,30.403538,-88.12833,Natural_gas,3.0
Port Neches Plant,Port Neches,29.978759999999998,-93.952294,Natural_gas,32.0
Goal Line LP,Escondido,33.1185,-117.0995,Natural_gas,49.4
Hermiston Generating Plant,Hermiston,45.8042,-119.37,Natural_gas,464.0
Live Oak Limited,Bakersfield,35.4837,-119.0298,Natural_gas,46.0
NYU Luthern Medical Center,New York City,40.6467,-74.0211,Natural_gas,1.6
University of Iowa Main Power Plant,Iowa City,41.6572,-91.54,Natural_gas,8.0
University of Illinois Abbott Power Plt,Champaign,40.105169000000004,-88.241528,Natural_gas,79.3
Grays Ferry Cogeneration,Philadelphia,39.942219,-75.188069,Natural_gas,170.6
Evanston Township High School,Evanston,42.044038,-87.699556,Natural_gas,2.4
Georgia-Pacific Brewton Mill,Brewton,31.076999999999998,-87.1116,Natural_gas,21.7
CSL Behring LLC,Bradley,41.1603,-87.8542,Natural_gas,3.8
Domino Sugar Baltimore,Baltimore,39.2744,-76.5956,Natural_gas,17.5
Saint Agnes Medical Center,Fresno,36.8347,-119.7667,Natural_gas,5.4
Mead Coated Board,Mahrt,32.1761,-85.0272,Natural_gas,21.0
Milford Power LP,Milford,42.129360999999996,-71.511496,Natural_gas,204.8
New York University Central Plant,New York,40.7899,-73.9233,Natural_gas,12.8
University of Washington Power Plant,Seattle,47.6539,-122.3036,Natural_gas,5.0
Johnson County,Cleburne,32.3994,-97.4078,Natural_gas,267.0
Bristol Myers Squibb New Brunswick,New Brunswick,40.475724,-74.446199,Natural_gas,9.4
Brandywine Power Facility,Brandywine,38.6681,-76.8678,Natural_gas,230.0
Gordonsville Energy LP,Gordonsville,38.124688,-78.20354300000001,Natural_gas,218.0
MMSD Jones Island Wastewater,Milwaukee,43.0214,-87.9014,Natural_gas,13.0
Sun Peak Generating Station,Las Vegas,36.1375,-115.0339,Natural_gas,222.0
Mars Snackfood US,Chicago,41.91708,-87.79218,Natural_gas,3.0
Kamin LLC Wrens Plant,Wrens,33.273835,-82.407813,Natural_gas,5.1
Presence Saint Mary of Nazareth Hospital,Chicago,41.9031,-87.6831,Natural_gas,1.6
DSM Pharmaceuticals,Greenville,35.665960999999996,-77.35744,Natural_gas,3.5
Mass Inst Tech Cntrl Utilities/Cogen Plt,Cambridge,42.360986,-71.093876,Natural_gas,19.0
Martinez Refining,Martinez,38.0169,-122.1117,Natural_gas,80.0
Brooklyn Navy Yard Cogeneration,Brooklyn,40.699357,-73.976392,Natural_gas,250.0
Michigan Power LP,Ludington,43.9375,-86.425,Natural_gas,128.0
Ergon Refining Vicksburg,Vicksburg,32.388271,-90.908344,Natural_gas,4.4
Grand Isle Gas Plant / Treating Station,Grand Isle,29.252062,-89.9721,Natural_gas,8.7
Mondelez Global LLC,Rockford,42.3156,-89.0356,Natural_gas,5.0
Richard J Donovan Correctional Facility,San Diego,32.583571,-116.930907,Natural_gas,2.2
Wellesley College Central Utility Plant,Wellesley,42.293927000000004,-71.308111,Natural_gas,6.7
Univ of Oregon Central Power Station,Eugene,44.048333,-123.073889,Natural_gas,9.0
Deercroft I & II LFGTE,Michigan City,41.6514,-86.9036,Natural_gas,3.2
Cargill Salt,St. Clair,42.8183,-82.4856,Natural_gas,4.2
New Mexico State University,Las Cruces,32.164818,-106.45128100000001,Natural_gas,4.5
Woodridge Greene Valley Treatment Plant,Woodridge,41.74,-88.06,Natural_gas,1.5
Thornwood High School,South Holland,41.5839,-87.6047,Natural_gas,1.4
Thornridge High School,Dolton,41.6225,-87.5978,Natural_gas,1.0
LSP-Cottage Grove LP,Cottage Grove,44.7956,-92.9119,Natural_gas,251.0
LSP-Whitewater LP,Whitewater,42.855463,-88.72991999999999,Natural_gas,261.0
Sweeny Cogen Facility,Old Ocean,29.0728,-95.745,Natural_gas,436.0
Yates Gas Plant,Iraan,30.8847,-101.9208,Natural_gas,5.6
Dighton Power Plant,Dighton,41.8312,-71.1239,Natural_gas,164.0
De Pere Energy Center,De Pere,44.448609999999995,-88.07204,Natural_gas,166.9
Androscoggin Energy Center,Jay,44.506315,-70.242312,Natural_gas,140.5
University of Tennessee Steam Plant,Knoxville,35.949209,-83.92606500000001,Natural_gas,4.5
Opryland USA,Nashville,36.211389000000004,-86.69444399999999,Natural_gas,3.8
Rio Bravo,Albuquerque,35.025999999999996,-106.64399999999999,Natural_gas,138.0
Mid-Georgia Cogeneration Facility,Kathleen,32.4856,-83.6039,Natural_gas,303.0
Berkshire Power,Agawam,42.0476,-72.6478,Natural_gas,229.3
Bridgeport Energy Project,Bridgeport,41.1692,-73.1844,Natural_gas,492.0
Cherokee County Cogen,Gaffney,35.0727,-81.613,Natural_gas,86.0
Packaging Corporation of America Jackson Mill,Jackson,31.4894,-87.8989,Natural_gas,17.8
Pasadena Cogeneration,Pasadena,29.72475,-95.176479,Natural_gas,720.0
Tiverton Power Plant,Tiverton,41.6422,-71.1706,Natural_gas,268.0
Axiall Plaquemine,Plaquemine,30.2586,-91.185,Natural_gas,225.0
Jameson Gas Processing Plant,Silver,32.05,-100.6917,Natural_gas,1.8
Bridgeport Gas Processing Plant,Bridgeport,33.195763,-97.802547,Natural_gas,10.4
Tenaska Georgia Generation Facility,Franklin,33.3516,-84.9996,Natural_gas,945.0
Tenaska Frontier Generation Station,Shiro,30.5924,-95.9178,Natural_gas,860.0
Batesville Generation Facility,Batesville,34.3356,-89.9275,Natural_gas,858.0
Black Hawk Station,Borger,35.6957,-101.36,Natural_gas,224.5
Mustang Station,Denver City,32.9728,-102.7417,Natural_gas,463.5
Maine Independence Station,Veazie,44.8242,-68.7094,Natural_gas,494.0
Pine Bluff Energy Center,Pine Bluff,34.2181,-91.9025,Natural_gas,192.0
Desert Star Energy Center,Boulder City,35.788889000000005,-114.99416699999999,Natural_gas,450.0
Millennium Power,Charlton,42.112291,-72.015113,Natural_gas,334.9
Brownsville Peaking Power,Brownsville,35.5438,-89.198,Natural_gas,456.0
Crockett Cogen Project,Crockett,38.0569,-122.2161,Natural_gas,247.4
Gregory Power Facility,Gregory,27.889290000000003,-97.25841700000001,Natural_gas,366.0
Zeeland Generating Station,Zeeland,42.8206,-85.9975,Natural_gas,840.3
Dearborn Industrial Generation,Dearborn,42.3026,-83.154,Natural_gas,489.0
Taft Cogeneration Facility,Hahnville,29.9888,-90.4599,Natural_gas,738.9
Midlothian Energy Facility,Midlothian,32.4302,-97.0537,Natural_gas,1602.0
Portside Energy,Portage,41.6317,-87.1728,Natural_gas,53.0
Lamar Power Project,Paris,33.6308,-95.59,Natural_gas,1036.0
NRG Sterlington Power,Sterlington,32.6889,-92.0811,Natural_gas,176.0
Rumford Power LLC,Rumford,44.5303,-70.5219,Natural_gas,254.0
Kalamazoo River Generating Station,Comstock,42.281345,-85.494956,Natural_gas,72.0
Livingston Generating Station,Gaylord,45.030397,-84.730795,Natural_gas,132.0
Klamath Cogeneration Plant,Klamath Falls,42.173889,-121.810556,Natural_gas,490.0
Sabine Cogen,Orange,30.0444,-93.771389,Natural_gas,86.7
Rhode Island State Energy Center,Johnston,41.8017,-71.5186,Natural_gas,554.0
Rocky Road Power LLC,East Dundee,42.0931,-88.2397,Natural_gas,350.9
Madison,Trenton,39.4522,-84.4647,Natural_gas,566.0
Vermillion Energy Facility,Cayuga,39.922328,-87.44635799999999,Natural_gas,576.0
Sutter Energy Center,Yuba City,39.053139,-121.69587299999999,Natural_gas,530.0
Rockingham County CT Station,Reidsville,36.3297,-79.8297,Natural_gas,825.0
RS Cogen,Lake Charles,30.221,-93.2992,Natural_gas,415.4
NAFTA Region Olefins Complex Cogen Fac,Port Arthur,29.954321000000004,-93.88359200000001,Natural_gas,70.0
Magic Valley Generating Station,Edinburg,26.3403,-98.19,Natural_gas,682.0
Griffith Energy LLC,Golden Valley,35.054029,-114.13327199999999,Natural_gas,570.0
Milford Power Project,Milford,41.224354999999996,-73.099728,Natural_gas,537.6
Manchief Electric Generating Station,Brush,40.217143,-103.68504,Natural_gas,264.0
Walton County Power LLC,Monroe,33.8148,-83.6954,Natural_gas,454.5
Desert Basin,Casa Grande,32.9042,-111.7889,Natural_gas,577.0
Kendall County Generation Facility,Minooka,41.4797,-88.2581,Natural_gas,1140.0
Tenaska Gateway Generating Station,Mt. Enterprise,32.017826,-94.619743,Natural_gas,845.0
Alliant Energy Neenah,Neenah,44.1936,-88.5064,Natural_gas,298.8
Rio Nogales Power Project,Seguin,29.593056,-97.973215,Natural_gas,796.0
Walton Discover Power Facility,Smiths,32.54098,-85.03887900000001,Natural_gas,100.0
Wolf Hollow I LP,Granbury,32.33422,-97.731686,Natural_gas,705.0
Hawk Road Facility,Franklin,33.358472,-84.99139100000001,Natural_gas,456.3
Hays Energy Project,San Marcos,29.7806,-97.9894,Natural_gas,844.0
Green Country Energy LLC,Jenks,35.9833,-95.9346,Natural_gas,783.0
Worthington Generation LLC,Worthington,39.0708,-87.0128,Natural_gas,166.0
Lake Road Generating Plant,Dayville,41.872043,-71.895799,Natural_gas,803.2
La Paloma Generating Plant,McKittrick,35.2956,-119.5919,Natural_gas,965.4
Guadalupe Generating Station,Marion,29.6244,-98.1419,Natural_gas,986.0
Lost Pines 1 Power Project,Bastrop,30.1478,-97.2714,Natural_gas,510.0
Bluegrass Generating Station,LaGrange,38.3902,-85.4133,Natural_gas,501.0
Calcasieu,Sulphur,30.1608,-93.345,Natural_gas,303.0
Broad River Energy Center,Gaffney,35.0786,-81.575,Natural_gas,854.8
Bastrop Energy Center,Cedar Creek,30.1458,-97.55,Natural_gas,525.0
Granite Ridge,Londonderry,42.9042,-71.4261,Natural_gas,678.0
Bosque County Peaking,Laquna Park,31.8594,-97.3586,Natural_gas,758.0
Acadia Energy Center,Eunice,30.428611,-92.41305600000001,Natural_gas,1087.9
Eastman Cogeneration Facility,Longview,32.4481,-94.6903,Natural_gas,409.7
South Point Energy Center,Mohave Valley,34.8678,-114.5317,Natural_gas,550.0
Dogwood Energy Facility,Pleasant Hill,38.7931,-94.3006,Natural_gas,612.4
Rathdrum Power LLC,Rathdrum,47.7858,-116.9203,Natural_gas,248.0
Sunrise Power LLC,Fellows,35.2097,-119.585,Natural_gas,545.0
Nelson Energy Center,Rock Falls,41.774444,-89.607222,Natural_gas,586.0
Aera San Ardo Cogen Facility,San Ardo,35.953293,-120.859952,Natural_gas,5.6
Channelview Cogeneration Plant,Channelview,29.836952,-95.12174399999999,Natural_gas,784.0
Cordova Energy,Cordova,41.712216,-90.279679,Natural_gas,521.2
Osceola (FL),St. Cloud,28.1289,-81.0978,Natural_gas,471.0
Ontelaunee Energy Center,Reading,40.4219,-75.9356,Natural_gas,543.7
Springdale 1 & 2,Springdale,40.546667,-79.768333,Natural_gas,88.0
Caledonia,Steens,33.6464,-88.2717,Natural_gas,765.0
Riverside Generating LLC,Catlettsburg,38.191660999999996,-82.604586,Natural_gas,825.0
Elwood Energy LLC,Elwood,41.4388,-88.1236,Natural_gas,1350.0
Arapahoe Combustion Turbine Project,Denver,39.6692,-105.0018,Natural_gas,122.5
Gibson City Energy Center LLC,Gibson City,40.4705,-88.3987,Natural_gas,228.0
Pinckneyville,Pinckneyville,38.1114,-89.3467,Natural_gas,316.0
Kinmundy,Patoka,38.7619,-89.0128,Natural_gas,206.0
Corpus Christi Energy Center,Corpus Christi,27.8139,-97.4283,Natural_gas,469.0
Valmont Combustion Turbine Project,Boulder,40.0205,-105.2009,Natural_gas,79.8
Afton Generating Station,La Mesa,32.114185,-106.846483,Natural_gas,235.6
ANP Bellingham Energy Project,Bellingham,42.110577,-71.453468,Natural_gas,534.5
ANP Blackstone Energy Project,Blackstone,42.059876,-71.515811,Natural_gas,490.2
Odessa-Ector Power Plant,Odessa,31.8403,-102.3264,Natural_gas,1015.4
Morris Cogeneration LLC,Morris,41.411944,-88.332778,Natural_gas,194.0
Los Medanos Energy Center,Pittsburg,38.030071,-121.87300400000001,Natural_gas,567.0
Hinds Energy Facility,Jackson,32.378969,-90.21990600000001,Natural_gas,491.0
Attala,Sallis,33.0147,-89.6753,Natural_gas,455.3
Harry L. Oswald,Little Rock,34.5923,-92.2166,Natural_gas,548.0
Lincoln Generating Facility,Manhattan,41.393315,-87.943612,Natural_gas,622.9
Ennis Power Company LLC,Ennis,32.32,-96.675,Natural_gas,359.5
Wheatland Generating Facility,Wheatland,38.6716,-87.2931,Natural_gas,450.0
Oneta Energy Center,Broken Arrow,36.0119,-95.6967,Natural_gas,1086.4
Freestone Energy Center,Fairfield,31.8907,-96.1131,Natural_gas,953.0
Greenville Electric Generating Station,Greenville,40.075783,-84.61513599999999,Natural_gas,196.0
Montpelier Electric Generating Station,Poneto,40.6206,-85.3057,Natural_gas,237.7
Jack County,Bridgeport,33.101,-97.9574,Natural_gas,1241.0
Liberty Electric Power Plant,Eddystone,39.8614,-75.3358,Natural_gas,562.0
Marshall Energy Facility,Calvert City,37.0286,-88.3958,Natural_gas,581.6
Handsome Lake Energy LLC,Kennerdell,41.2908,-79.8061,Natural_gas,267.5
Audrain Generating Station,Vandalia,39.3092,-91.5369,Natural_gas,600.0
Lee Energy Facility,Dixon,41.8287,-89.4054,Natural_gas,676.8
Energy Shelby County,Neoga,39.2794,-88.4772,Natural_gas,336.0
NRG Rockford I,Rockford,42.238558000000005,-89.101202,Natural_gas,302.9
Red Oak Power LLC,Sayreville,40.448674,-74.34887900000001,Natural_gas,775.9
Hog Bayou Energy Center,Mobile,30.7478,-88.0575,Natural_gas,230.0
Santa Rosa Energy Center,Pace,30.5664,-87.115,Natural_gas,235.9
Astoria Gas Turbines,Astoria,40.787,-73.9048,Natural_gas,415.4
Doyle Energy Facility,Monroe,33.837699,-83.699577,Natural_gas,320.0
Tuscola Station,Tuscola,39.798175,-88.34977099999999,Natural_gas,4.8
"Darby Power, LLC",Mt Sterling,39.7139,-83.1778,Natural_gas,480.0
Tait Electric Generating Station,Dayton,39.727678999999995,-84.209489,Natural_gas,333.5
University Park South,University Park,41.440893,-87.753189,Natural_gas,300.0
Gleason Generating Facility,Gleason,36.2454,-88.61200000000001,Natural_gas,360.0
Crete Energy Venture LLC,Crete,41.429444000000004,-87.6187,Natural_gas,300.0
Whiting Clean Energy,Whiting,41.6739,-87.4775,Natural_gas,513.0
Bowling Green Generating Station,Bowling Green,41.397369,-83.64123599999999,Natural_gas,38.0
Galion Generating Station,Galion,40.7167,-82.789,Natural_gas,38.0
Napoleon Peaking Station,Napoleon,41.4079,-84.1095,Natural_gas,38.0
Edward L. Addison Generating Plant,Thomaston,32.9111,-84.3064,Natural_gas,591.7
TVA Southaven Combined Cycle,Southaven,34.9939,-90.0378,Natural_gas,780.0
Jackson Generating Station,Jackson,42.2488,-84.3767,Natural_gas,543.0
Tenaska Lindsay Hill Generating Station,Billingsley,32.6514,-86.7386,Natural_gas,848.0
Ceredo Generating Station,Huntington,38.3681,-82.5339,Natural_gas,450.0
Beaver Creek Gas Plant,Riverton,42.8475,-108.3136,Natural_gas,3.6
Aurora,Aurora,41.8151,-88.2265,Natural_gas,949.1
Southeast Chicago Energy Project,Chicago,41.7181,-87.5449,Natural_gas,296.0
Arlington Valley Energy Facility,Arlington,33.3417,-112.8897,Natural_gas,580.0
Front Range Power Plant,Fountain,38.6281,-104.7069,Natural_gas,460.0
Big Sandy Peaker Plant,Kenona,38.3441,-82.5938,Natural_gas,300.0
Wolf Hills Energy,Bristol,36.6644,-82.1044,Natural_gas,250.0
Oleander Power Project LP,Cocoa,28.3661,-80.7947,Natural_gas,815.8
Decatur Energy Center,Decatur,34.6292,-87.0214,Natural_gas,750.0
Morgan Energy Center,Decatur,34.6397,-87.0639,Natural_gas,749.0
Westbrook Energy Center Power Plant,Westbrook,43.6575,-70.375,Natural_gas,537.6
Blythe Energy Inc,Blythe,33.6157,-114.6865,Natural_gas,514.0
Calumet Energy Team LLC,Chicago,41.6835,-87.5563,Natural_gas,327.0
New Covert Generating Facility,Covert,42.322379999999995,-86.29368000000001,Natural_gas,1055.5
Fairless Energy Center,Fairless Hills,40.1475,-74.7411,Natural_gas,1286.0
Channel Energy Center LLC,Pasadena,29.7189,-95.2319,Natural_gas,768.0
Baconton Power Plant,Baconton,31.3869,-84.08,Natural_gas,196.0
Gila River Power Block 4,Gila Bend,32.975,-112.6944,Natural_gas,515.0
Calvert City,Calvert City,37.048333,-88.353889,Natural_gas,23.0
Air Products Port Arthur,Port Arthur,29.866497,-93.96515,Natural_gas,138.4
BASF Freeport Works,Feeeport,29.002,-95.39399999999999,Natural_gas,75.0
Ingleside Cogeneration,Houston,27.882778000000002,-97.242778,Natural_gas,310.0
Fore River Generating Station,North Weymouth,42.2422,-70.9661,Natural_gas,726.0
Indian River,Titusville,28.493176000000002,-80.78024599999999,Natural_gas,576.4
Wise County Power LLC,Poolville,33.0583,-97.9103,Natural_gas,680.0
Chuck Lenzie Generating Station,Apex,36.383719,-114.921779,Natural_gas,1170.0
Baytown Energy Center,Baytown,29.7731,-94.9019,Natural_gas,800.0
Hermiston Power Partnership,Hermiston,45.794046,-119.313323,Natural_gas,615.0
Washington County Power LLC,Sandersville,33.092239,-82.97999200000001,Natural_gas,615.5
Delta Energy Center,Pittsburg,38.0169,-121.8439,Natural_gas,769.1
Holland Energy Facility,Beecher City,39.223144,-88.75840600000001,Natural_gas,624.3
Ironwood LLC,Lebanon,40.3509,-76.3658,Natural_gas,690.2
Dell Power Station,Dell,35.8619,-90.0253,Natural_gas,446.0
Luna Energy Facility,Deming,32.299349,-107.7834,Natural_gas,559.0
Otay Mesa Generating Project,San Diego,32.581481,-116.914969,Natural_gas,571.0
Armstrong,Shelocta,40.638021,-79.351725,Natural_gas,670.7
Troy Energy LLC,Luckey,41.47724,-83.45983000000001,Natural_gas,703.0
Pleasants Energy LLC,St Mary's,39.3325,-81.3642,Natural_gas,343.4
Dresden Energy Facility,Dresden,40.0928,-82.0276,Natural_gas,540.0
Jack Fusco Energy Center,Thompsons,29.4731,-95.6244,Natural_gas,525.0
Cottonwood Energy Project,Deweyville,30.2588,-93.7353,Natural_gas,1180.0
Sugar Creek Power,West Terre Haute,39.3931,-87.5108,Natural_gas,549.0
Exelon LaPorte Generating Station,LaPorte,29.7028,-95.0718,Natural_gas,152.0
Harquahala Generating Project,Tonopah,33.47596,-113.11343400000001,Natural_gas,1042.9
Astoria Energy,New York,40.7825,-73.8964,Natural_gas,540.0
Gans,Gans,39.7475,-79.838888,Natural_gas,88.0
Union Power Station,El Dorado,33.296146,-92.589364,Natural_gas,2008.6
Thomas A Smith Energy Facility,Dalton,34.7094,-84.9175,Natural_gas,1260.0
Columbia Energy Center (SC),Gaston,33.8697,-81.0178,Natural_gas,543.0
RockGen Energy Center,Cambridge,42.9767,-89.0492,Natural_gas,489.0
Zion Energy Center,Zion,42.4776,-87.895,Natural_gas,456.0
Metcalf Energy Center,San Jose,37.2207,-121.7457,Natural_gas,546.1
Crossroads Energy Center,Clarksdale,34.183,-90.5621,Natural_gas,308.0
Washington Energy Facility,Beverly,39.58,-81.6564,Natural_gas,661.0
Elk Hills Power LLC,Tupman,35.280318,-119.470707,Natural_gas,525.0
Rolling Hills Generating,Wilkesville,39.0839,-82.3328,Natural_gas,838.0
Renaissance Power Plant,Carson City,43.1864,-84.8429,Natural_gas,652.0
Carville Energy LLC,St Gabriel,30.2294,-91.065,Natural_gas,521.0
